{"type":"FeatureCollection","features":[{"type":"Feature","properties":{"station_id":"2","name":"Michigan Ave & Balbo Ave","latitude":"41.872293","longitude":"-87.624091","dpcapacity":"35","landmark":"541"},"geometry":{"type":"Point","coordinates":[-87.624091,41.872293]}},{"type":"Feature","properties":{"station_id":"3","name":"Shedd Aquarium","latitude":"41.86722596","longitude":"-87.61535539","dpcapacity":"31","landmark":"544"},"geometry":{"type":"Point","coordinates":[-87.61535539,41.86722596]}},{"type":"Feature","properties":{"station_id":"4","name":"Burnham Harbor","latitude":"41.856268","longitude":"-87.613348","dpcapacity":"23","landmark":"545"},"geometry":{"type":"Point","coordinates":[-87.613348,41.856268]}},{"type":"Feature","properties":{"station_id":"5","name":"State St & Harrison St","latitude":"41.874053","longitude":"-87.627716","dpcapacity":"23","landmark":"30"},"geometry":{"type":"Point","coordinates":[-87.627716,41.874053]}},{"type":"Feature","properties":{"station_id":"6","name":"Dusable Harbor","latitude":"41.88504199","longitude":"-87.61279454","dpcapacity":"31","landmark":"548"},"geometry":{"type":"Point","coordinates":[-87.61279454,41.88504199]}},{"type":"Feature","properties":{"station_id":"7","name":"Field Blvd & South Water St","latitude":"41.88634906","longitude":"-87.61751655","dpcapacity":"19","landmark":"534"},"geometry":{"type":"Point","coordinates":[-87.61751655,41.88634906]}},{"type":"Feature","properties":{"station_id":"9","name":"Leavitt St & Archer Ave","latitude":"41.82879202","longitude":"-87.68060446","dpcapacity":"19","landmark":"695"},"geometry":{"type":"Point","coordinates":[-87.68060446,41.82879202]}},{"type":"Feature","properties":{"station_id":"11","name":"Jeffery Blvd & 71st St","latitude":"41.76663824","longitude":"-87.57645011","dpcapacity":"11","landmark":"496"},"geometry":{"type":"Point","coordinates":[-87.57645011,41.76663824]}},{"type":"Feature","properties":{"station_id":"12","name":"South Shore Dr & 71st St","latitude":"41.76640946","longitude":"-87.56568757","dpcapacity":"15","landmark":"497"},"geometry":{"type":"Point","coordinates":[-87.56568757,41.76640946]}},{"type":"Feature","properties":{"station_id":"13","name":"Wilton Ave & Diversey Pkwy","latitude":"41.93250008","longitude":"-87.65268082","dpcapacity":"19","landmark":"66"},"geometry":{"type":"Point","coordinates":[-87.65268082,41.93250008]}},{"type":"Feature","properties":{"station_id":"14","name":"Morgan St & 18th St","latitude":"41.858086","longitude":"-87.651073","dpcapacity":"15","landmark":"163"},"geometry":{"type":"Point","coordinates":[-87.651073,41.858086]}},{"type":"Feature","properties":{"station_id":"15","name":"Racine Ave & 18th St","latitude":"41.858166","longitude":"-87.656495","dpcapacity":"15","landmark":"164"},"geometry":{"type":"Point","coordinates":[-87.656495,41.858166]}},{"type":"Feature","properties":{"station_id":"16","name":"Wood St & North Ave","latitude":"41.910329","longitude":"-87.672516","dpcapacity":"11","landmark":"223"},"geometry":{"type":"Point","coordinates":[-87.672516,41.910329]}},{"type":"Feature","properties":{"station_id":"17","name":"Wood St & Division St","latitude":"41.90332","longitude":"-87.67273","dpcapacity":"15","landmark":"246"},"geometry":{"type":"Point","coordinates":[-87.67273,41.90332]}},{"type":"Feature","properties":{"station_id":"18","name":"Wacker Dr & Washington St","latitude":"41.88327159","longitude":"-87.63731329","dpcapacity":"19","landmark":"536"},"geometry":{"type":"Point","coordinates":[-87.63731329,41.88327159]}},{"type":"Feature","properties":{"station_id":"19","name":"Loomis St & Taylor St","latitude":"41.869417","longitude":"-87.660996","dpcapacity":"15","landmark":"139"},"geometry":{"type":"Point","coordinates":[-87.660996,41.869417]}},{"type":"Feature","properties":{"station_id":"20","name":"Sheffield Ave & Kingsbury St","latitude":"41.90959193","longitude":"-87.65349723","dpcapacity":"15","landmark":"154"},"geometry":{"type":"Point","coordinates":[-87.65349723,41.90959193]}},{"type":"Feature","properties":{"station_id":"21","name":"Aberdeen St & Jackson Blvd","latitude":"41.87772613","longitude":"-87.65478743","dpcapacity":"15","landmark":"157"},"geometry":{"type":"Point","coordinates":[-87.65478743,41.87772613]}},{"type":"Feature","properties":{"station_id":"22","name":"May St & Taylor St","latitude":"41.8694821","longitude":"-87.6554864","dpcapacity":"15","landmark":"160"},"geometry":{"type":"Point","coordinates":[-87.6554864,41.8694821]}},{"type":"Feature","properties":{"station_id":"23","name":"Orleans St & Elm St","latitude":"41.902924","longitude":"-87.637715","dpcapacity":"15","landmark":"172"},"geometry":{"type":"Point","coordinates":[-87.637715,41.902924]}},{"type":"Feature","properties":{"station_id":"24","name":"Fairbanks Ct & Grand Ave","latitude":"41.89186","longitude":"-87.62062","dpcapacity":"15","landmark":"262"},"geometry":{"type":"Point","coordinates":[-87.62062,41.89186]}},{"type":"Feature","properties":{"station_id":"25","name":"Michigan Ave & Pearson St","latitude":"41.89766","longitude":"-87.62351","dpcapacity":"23","landmark":"34"},"geometry":{"type":"Point","coordinates":[-87.62351,41.89766]}},{"type":"Feature","properties":{"station_id":"26","name":"McClurg Ct & Illinois St","latitude":"41.89102","longitude":"-87.6173","dpcapacity":"31","landmark":"51"},"geometry":{"type":"Point","coordinates":[-87.6173,41.89102]}},{"type":"Feature","properties":{"station_id":"27","name":"Larrabee St & North Ave","latitude":"41.91021","longitude":"-87.6435","dpcapacity":"19","landmark":"174"},"geometry":{"type":"Point","coordinates":[-87.6435,41.91021]}},{"type":"Feature","properties":{"station_id":"28","name":"Larrabee St & Menomonee St","latitude":"41.91468","longitude":"-87.64332","dpcapacity":"15","landmark":"282"},"geometry":{"type":"Point","coordinates":[-87.64332,41.91468]}},{"type":"Feature","properties":{"station_id":"29","name":"Noble St & Milwaukee Ave","latitude":"41.90068","longitude":"-87.6626","dpcapacity":"15","landmark":"290"},"geometry":{"type":"Point","coordinates":[-87.6626,41.90068]}},{"type":"Feature","properties":{"station_id":"30","name":"Ashland Ave & Augusta Blvd","latitude":"41.899643","longitude":"-87.6677","dpcapacity":"15","landmark":"248"},"geometry":{"type":"Point","coordinates":[-87.6677,41.899643]}},{"type":"Feature","properties":{"station_id":"31","name":"Franklin St & Chicago Ave","latitude":"41.89680204","longitude":"-87.63563839","dpcapacity":"23","landmark":"17"},"geometry":{"type":"Point","coordinates":[-87.63563839,41.89680204]}},{"type":"Feature","properties":{"station_id":"32","name":"Racine Ave & Congress Pkwy","latitude":"41.87464","longitude":"-87.65703","dpcapacity":"19","landmark":"76"},"geometry":{"type":"Point","coordinates":[-87.65703,41.87464]}},{"type":"Feature","properties":{"station_id":"33","name":"State St & Van Buren St","latitude":"41.877181","longitude":"-87.627844","dpcapacity":"27","landmark":"3"},"geometry":{"type":"Point","coordinates":[-87.627844,41.877181]}},{"type":"Feature","properties":{"station_id":"34","name":"Cannon Dr & Fullerton Ave","latitude":"41.92675599","longitude":"-87.63442878","dpcapacity":"15","landmark":"124"},"geometry":{"type":"Point","coordinates":[-87.63442878,41.92675599]}},{"type":"Feature","properties":{"station_id":"35","name":"Streeter Dr & Illinois St","latitude":"41.891071","longitude":"-87.6122","dpcapacity":"39","landmark":"22"},"geometry":{"type":"Point","coordinates":[-87.6122,41.891071]}},{"type":"Feature","properties":{"station_id":"36","name":"Franklin St & Jackson Blvd","latitude":"41.87770796","longitude":"-87.63532114","dpcapacity":"31","landmark":"19"},"geometry":{"type":"Point","coordinates":[-87.63532114,41.87770796]}},{"type":"Feature","properties":{"station_id":"37","name":"Dearborn St & Adams St","latitude":"41.87935636","longitude":"-87.62979104","dpcapacity":"19","landmark":"20"},"geometry":{"type":"Point","coordinates":[-87.62979104,41.87935636]}},{"type":"Feature","properties":{"station_id":"38","name":"Clark St & Lake St","latitude":"41.88602083","longitude":"-87.63087606","dpcapacity":"27","landmark":"547"},"geometry":{"type":"Point","coordinates":[-87.63087606,41.88602083]}},{"type":"Feature","properties":{"station_id":"39","name":"Wabash Ave & Adams St","latitude":"41.87947235","longitude":"-87.62568861","dpcapacity":"23","landmark":"538"},"geometry":{"type":"Point","coordinates":[-87.62568861,41.87947235]}},{"type":"Feature","properties":{"station_id":"40","name":"LaSalle St & Adams St","latitude":"41.87934437","longitude":"-87.63198522","dpcapacity":"15","landmark":"537"},"geometry":{"type":"Point","coordinates":[-87.63198522,41.87934437]}},{"type":"Feature","properties":{"station_id":"41","name":"Federal St & Polk St","latitude":"41.87207763","longitude":"-87.62954377","dpcapacity":"19","landmark":"543"},"geometry":{"type":"Point","coordinates":[-87.62954377,41.87207763]}},{"type":"Feature","properties":{"station_id":"42","name":"Wabash Ave & Cermak Rd","latitude":"41.852619","longitude":"-87.626488","dpcapacity":"11","landmark":"170"},"geometry":{"type":"Point","coordinates":[-87.626488,41.852619]}},{"type":"Feature","properties":{"station_id":"43","name":"Michigan Ave & Washington St","latitude":"41.88389277","longitude":"-87.62464914","dpcapacity":"43","landmark":"1"},"geometry":{"type":"Point","coordinates":[-87.62464914,41.88389277]}},{"type":"Feature","properties":{"station_id":"44","name":"State St & Randolph St","latitude":"41.8847302","longitude":"-87.62773357","dpcapacity":"27","landmark":"2"},"geometry":{"type":"Point","coordinates":[-87.62773357,41.8847302]}},{"type":"Feature","properties":{"station_id":"45","name":"Michigan Ave & Congress Pkwy","latitude":"41.876243","longitude":"-87.624426","dpcapacity":"15","landmark":"40"},"geometry":{"type":"Point","coordinates":[-87.624426,41.876243]}},{"type":"Feature","properties":{"station_id":"46","name":"Wells St & Walton St","latitude":"41.89993001","longitude":"-87.63443007","dpcapacity":"19","landmark":"46"},"geometry":{"type":"Point","coordinates":[-87.63443007,41.89993001]}},{"type":"Feature","properties":{"station_id":"47","name":"State St & Kinzie St","latitude":"41.88918","longitude":"-87.6277","dpcapacity":"23","landmark":"50"},"geometry":{"type":"Point","coordinates":[-87.6277,41.88918]}},{"type":"Feature","properties":{"station_id":"48","name":"Larrabee St & Kingsbury St","latitude":"41.897764","longitude":"-87.642884","dpcapacity":"27","landmark":"12"},"geometry":{"type":"Point","coordinates":[-87.642884,41.897764]}},{"type":"Feature","properties":{"station_id":"49","name":"Dearborn St & Monroe St","latitude":"41.88131982","longitude":"-87.62952092","dpcapacity":"27","landmark":"49"},"geometry":{"type":"Point","coordinates":[-87.62952092,41.88131982]}},{"type":"Feature","properties":{"station_id":"50","name":"Clark St & Congress Pkwy","latitude":"41.87593267","longitude":"-87.63058454","dpcapacity":"27","landmark":"9"},"geometry":{"type":"Point","coordinates":[-87.63058454,41.87593267]}},{"type":"Feature","properties":{"station_id":"51","name":"Clark St & Randolph St","latitude":"41.88457623","longitude":"-87.63188991","dpcapacity":"31","landmark":"5"},"geometry":{"type":"Point","coordinates":[-87.63188991,41.88457623]}},{"type":"Feature","properties":{"station_id":"52","name":"Michigan Ave & Lake St","latitude":"41.886024","longitude":"-87.624117","dpcapacity":"31","landmark":"43"},"geometry":{"type":"Point","coordinates":[-87.624117,41.886024]}},{"type":"Feature","properties":{"station_id":"53","name":"Wells St & Erie St","latitude":"41.893832","longitude":"-87.634195","dpcapacity":"19","landmark":"64"},"geometry":{"type":"Point","coordinates":[-87.634195,41.893832]}},{"type":"Feature","properties":{"station_id":"54","name":"Ogden Ave & Chicago Ave","latitude":"41.89636246","longitude":"-87.65406127","dpcapacity":"19","landmark":"44"},"geometry":{"type":"Point","coordinates":[-87.65406127,41.89636246]}},{"type":"Feature","properties":{"station_id":"55","name":"Halsted St & James M Rochford St","latitude":"41.865861","longitude":"-87.646611","dpcapacity":"15","landmark":"166"},"geometry":{"type":"Point","coordinates":[-87.646611,41.865861]}},{"type":"Feature","properties":{"station_id":"56","name":"Desplaines St & Kinzie St","latitude":"41.88871604","longitude":"-87.64444785","dpcapacity":"27","landmark":"39"},"geometry":{"type":"Point","coordinates":[-87.64444785,41.88871604]}},{"type":"Feature","properties":{"station_id":"57","name":"Clinton St & Roosevelt Rd","latitude":"41.86711778","longitude":"-87.64108796","dpcapacity":"15","landmark":"327"},"geometry":{"type":"Point","coordinates":[-87.64108796,41.86711778]}},{"type":"Feature","properties":{"station_id":"58","name":"Marshfield Ave & Cortland St","latitude":"41.916017","longitude":"-87.668879","dpcapacity":"19","landmark":"25"},"geometry":{"type":"Point","coordinates":[-87.668879,41.916017]}},{"type":"Feature","properties":{"station_id":"59","name":"Wabash Ave & Roosevelt Rd","latitude":"41.867227","longitude":"-87.625961","dpcapacity":"23","landmark":"31"},"geometry":{"type":"Point","coordinates":[-87.625961,41.867227]}},{"type":"Feature","properties":{"station_id":"60","name":"Dayton St & North Ave","latitude":"41.91057803","longitude":"-87.64942193","dpcapacity":"19","landmark":"58"},"geometry":{"type":"Point","coordinates":[-87.64942193,41.91057803]}},{"type":"Feature","properties":{"station_id":"61","name":"Wood St & Milwaukee Ave","latitude":"41.907655","longitude":"-87.672552","dpcapacity":"15","landmark":"221"},"geometry":{"type":"Point","coordinates":[-87.672552,41.907655]}},{"type":"Feature","properties":{"station_id":"62","name":"McCormick Place","latitude":"41.85137517","longitude":"-87.61883465","dpcapacity":"27","landmark":"106"},"geometry":{"type":"Point","coordinates":[-87.61883465,41.85137517]}},{"type":"Feature","properties":{"station_id":"66","name":"Clinton St & Lake St","latitude":"41.88583274","longitude":"-87.64138231","dpcapacity":"19","landmark":"21"},"geometry":{"type":"Point","coordinates":[-87.64138231,41.88583274]}},{"type":"Feature","properties":{"station_id":"67","name":"Sheffield Ave & Fullerton Ave","latitude":"41.92560188","longitude":"-87.65370804","dpcapacity":"15","landmark":"60"},"geometry":{"type":"Point","coordinates":[-87.65370804,41.92560188]}},{"type":"Feature","properties":{"station_id":"68","name":"Clinton St & Tilden St","latitude":"41.875885","longitude":"-87.640795","dpcapacity":"23","landmark":"37"},"geometry":{"type":"Point","coordinates":[-87.640795,41.875885]}},{"type":"Feature","properties":{"station_id":"69","name":"Damen Ave & Pierce Ave","latitude":"41.90939601","longitude":"-87.67769193","dpcapacity":"19","landmark":"65"},"geometry":{"type":"Point","coordinates":[-87.67769193,41.90939601]}},{"type":"Feature","properties":{"station_id":"71","name":"Morgan St & Lake St","latitude":"41.88548331","longitude":"-87.65230486","dpcapacity":"15","landmark":"72"},"geometry":{"type":"Point","coordinates":[-87.65230486,41.88548331]}},{"type":"Feature","properties":{"station_id":"72","name":"State St & 16th St","latitude":"41.86012138","longitude":"-87.62772919","dpcapacity":"15","landmark":"148"},"geometry":{"type":"Point","coordinates":[-87.62772919,41.86012138]}},{"type":"Feature","properties":{"station_id":"73","name":"Jefferson St & Monroe St","latitude":"41.880422","longitude":"-87.642746","dpcapacity":"19","landmark":"38"},"geometry":{"type":"Point","coordinates":[-87.642746,41.880422]}},{"type":"Feature","properties":{"station_id":"74","name":"Kingsbury St & Erie St","latitude":"41.89384315","longitude":"-87.64185116","dpcapacity":"23","landmark":"265"},"geometry":{"type":"Point","coordinates":[-87.64185116,41.89384315]}},{"type":"Feature","properties":{"station_id":"75","name":"Canal St & Jackson Blvd","latitude":"41.878412","longitude":"-87.641052","dpcapacity":"31","landmark":"138"},"geometry":{"type":"Point","coordinates":[-87.641052,41.878412]}},{"type":"Feature","properties":{"station_id":"76","name":"Lake Shore Dr & Monroe St","latitude":"41.880958","longitude":"-87.616743","dpcapacity":"39","landmark":"300"},"geometry":{"type":"Point","coordinates":[-87.616743,41.880958]}},{"type":"Feature","properties":{"station_id":"77","name":"Clinton St & Madison St","latitude":"41.882242","longitude":"-87.641066","dpcapacity":"31","landmark":"301"},"geometry":{"type":"Point","coordinates":[-87.641066,41.882242]}},{"type":"Feature","properties":{"station_id":"80","name":"Aberdeen St & Madison St","latitude":"41.881487","longitude":"-87.654752","dpcapacity":"19","landmark":"156"},"geometry":{"type":"Point","coordinates":[-87.654752,41.881487]}},{"type":"Feature","properties":{"station_id":"81","name":"Daley Center Plaza","latitude":"41.884451","longitude":"-87.629892","dpcapacity":"36","landmark":"23"},"geometry":{"type":"Point","coordinates":[-87.629892,41.884451]}},{"type":"Feature","properties":{"station_id":"84","name":"Union Ave & Grand Ave","latitude":"41.891","longitude":"-87.645925","dpcapacity":"19","landmark":"33"},"geometry":{"type":"Point","coordinates":[-87.645925,41.891]}},{"type":"Feature","properties":{"station_id":"85","name":"Michigan Ave & Oak St","latitude":"41.90096039","longitude":"-87.62377664","dpcapacity":"23","landmark":"42"},"geometry":{"type":"Point","coordinates":[-87.62377664,41.90096039]}},{"type":"Feature","properties":{"station_id":"86","name":"Eckhart Park","latitude":"41.89637337","longitude":"-87.66098386","dpcapacity":"15","landmark":"289"},"geometry":{"type":"Point","coordinates":[-87.66098386,41.89637337]}},{"type":"Feature","properties":{"station_id":"87","name":"Racine Ave & Fullerton Ave","latitude":"41.92556258","longitude":"-87.65840426","dpcapacity":"19","landmark":"189"},"geometry":{"type":"Point","coordinates":[-87.65840426,41.92556258]}},{"type":"Feature","properties":{"station_id":"88","name":"May St & Randolph St","latitude":"41.88397","longitude":"-87.655688","dpcapacity":"15","landmark":"155"},"geometry":{"type":"Point","coordinates":[-87.655688,41.88397]}},{"type":"Feature","properties":{"station_id":"89","name":"Financial Pl & Congress Pkwy","latitude":"41.87500913","longitude":"-87.63310582","dpcapacity":"31","landmark":"540"},"geometry":{"type":"Point","coordinates":[-87.63310582,41.87500913]}},{"type":"Feature","properties":{"station_id":"90","name":"Millennium Park","latitude":"41.8810317","longitude":"-87.62408432","dpcapacity":"35","landmark":"8"},"geometry":{"type":"Point","coordinates":[-87.62408432,41.8810317]}},{"type":"Feature","properties":{"station_id":"91","name":"Clinton St & Washington Blvd","latitude":"41.88338","longitude":"-87.64117","dpcapacity":"31","landmark":"10"},"geometry":{"type":"Point","coordinates":[-87.64117,41.88338]}},{"type":"Feature","properties":{"station_id":"92","name":"Carpenter St & Huron St","latitude":"41.894556","longitude":"-87.653449","dpcapacity":"19","landmark":"196"},"geometry":{"type":"Point","coordinates":[-87.653449,41.894556]}},{"type":"Feature","properties":{"station_id":"93","name":"Sheffield Ave & Willow St","latitude":"41.913688","longitude":"-87.652855","dpcapacity":"15","landmark":"190"},"geometry":{"type":"Point","coordinates":[-87.652855,41.913688]}},{"type":"Feature","properties":{"station_id":"94","name":"Clark St & Armitage Ave","latitude":"41.918306","longitude":"-87.636282","dpcapacity":"19","landmark":"146"},"geometry":{"type":"Point","coordinates":[-87.636282,41.918306]}},{"type":"Feature","properties":{"station_id":"95","name":"Stony Island Ave & 64th St","latitude":"41.77870057","longitude":"-87.58678762","dpcapacity":"15","landmark":"490"},"geometry":{"type":"Point","coordinates":[-87.58678762,41.77870057]}},{"type":"Feature","properties":{"station_id":"96","name":"Desplaines St & Randolph St","latitude":"41.88461619","longitude":"-87.64457058","dpcapacity":"23","landmark":"535"},"geometry":{"type":"Point","coordinates":[-87.64457058,41.88461619]}},{"type":"Feature","properties":{"station_id":"97","name":"Museum Campus","latitude":"41.865212","longitude":"-87.617759","dpcapacity":"35","landmark":"29"},"geometry":{"type":"Point","coordinates":[-87.617759,41.865212]}},{"type":"Feature","properties":{"station_id":"98","name":"LaSalle St & Washington St","latitude":"41.882664","longitude":"-87.63253","dpcapacity":"15","landmark":"6"},"geometry":{"type":"Point","coordinates":[-87.63253,41.882664]}},{"type":"Feature","properties":{"station_id":"99","name":"Lake Shore Dr & Ohio St","latitude":"41.89257","longitude":"-87.614492","dpcapacity":"19","landmark":"337"},"geometry":{"type":"Point","coordinates":[-87.614492,41.89257]}},{"type":"Feature","properties":{"station_id":"100","name":"Orleans St & Merchandise Mart Plaza","latitude":"41.888243","longitude":"-87.63639","dpcapacity":"23","landmark":"13"},"geometry":{"type":"Point","coordinates":[-87.63639,41.888243]}},{"type":"Feature","properties":{"station_id":"101","name":"63rd St Beach","latitude":"41.78101637","longitude":"-87.57611976","dpcapacity":"23","landmark":"491"},"geometry":{"type":"Point","coordinates":[-87.57611976,41.78101637]}},{"type":"Feature","properties":{"station_id":"102","name":"Stony Island Ave & 67th St","latitude":"41.7734585","longitude":"-87.58533974","dpcapacity":"11","landmark":"492"},"geometry":{"type":"Point","coordinates":[-87.58533974,41.7734585]}},{"type":"Feature","properties":{"station_id":"103","name":"Clinton St & Polk St","latitude":"41.87146652","longitude":"-87.64094913","dpcapacity":"15","landmark":"542"},"geometry":{"type":"Point","coordinates":[-87.64094913,41.87146652]}},{"type":"Feature","properties":{"station_id":"106","name":"State St & Pearson St","latitude":"41.897448","longitude":"-87.628722","dpcapacity":"27","landmark":"14"},"geometry":{"type":"Point","coordinates":[-87.628722,41.897448]}},{"type":"Feature","properties":{"station_id":"107","name":"Desplaines St & Jackson Blvd","latitude":"41.878287","longitude":"-87.643909","dpcapacity":"23","landmark":"539"},"geometry":{"type":"Point","coordinates":[-87.643909,41.878287]}},{"type":"Feature","properties":{"station_id":"108","name":"Halsted St & Polk St","latitude":"41.87184","longitude":"-87.64664","dpcapacity":"19","landmark":"27"},"geometry":{"type":"Point","coordinates":[-87.64664,41.87184]}},{"type":"Feature","properties":{"station_id":"109","name":"900 W Harrison St","latitude":"41.874675","longitude":"-87.650019","dpcapacity":"19","landmark":"28"},"geometry":{"type":"Point","coordinates":[-87.650019,41.874675]}},{"type":"Feature","properties":{"station_id":"110","name":"Dearborn St & Erie St","latitude":"41.893992","longitude":"-87.629318","dpcapacity":"23","landmark":"45"},"geometry":{"type":"Point","coordinates":[-87.629318,41.893992]}},{"type":"Feature","properties":{"station_id":"111","name":"Sedgwick St & Huron St","latitude":"41.894666","longitude":"-87.638437","dpcapacity":"19","landmark":"52"},"geometry":{"type":"Point","coordinates":[-87.638437,41.894666]}},{"type":"Feature","properties":{"station_id":"112","name":"Green St & Randolph St","latitude":"41.884078","longitude":"-87.648684","dpcapacity":"15","landmark":"53"},"geometry":{"type":"Point","coordinates":[-87.648684,41.884078]}},{"type":"Feature","properties":{"station_id":"113","name":"Bissell St & Armitage Ave","latitude":"41.91844","longitude":"-87.65222","dpcapacity":"15","landmark":"59"},"geometry":{"type":"Point","coordinates":[-87.65222,41.91844]}},{"type":"Feature","properties":{"station_id":"114","name":"Sheffield Ave & Addison St","latitude":"41.94688","longitude":"-87.65445","dpcapacity":"27","landmark":"62"},"geometry":{"type":"Point","coordinates":[-87.65445,41.94688]}},{"type":"Feature","properties":{"station_id":"115","name":"Sheffield Ave & Wellington Ave","latitude":"41.936253","longitude":"-87.653566","dpcapacity":"23","landmark":"67"},"geometry":{"type":"Point","coordinates":[-87.653566,41.936253]}},{"type":"Feature","properties":{"station_id":"116","name":"Western Ave & Winnebago Ave","latitude":"41.915533","longitude":"-87.687051","dpcapacity":"15","landmark":"68"},"geometry":{"type":"Point","coordinates":[-87.687051,41.915533]}},{"type":"Feature","properties":{"station_id":"117","name":"Wilton Ave & Belmont Ave","latitude":"41.94018","longitude":"-87.65304","dpcapacity":"23","landmark":"69"},"geometry":{"type":"Point","coordinates":[-87.65304,41.94018]}},{"type":"Feature","properties":{"station_id":"118","name":"Sedgwick St & North Ave","latitude":"41.910579","longitude":"-87.638618","dpcapacity":"19","landmark":"70"},"geometry":{"type":"Point","coordinates":[-87.638618,41.910579]}},{"type":"Feature","properties":{"station_id":"119","name":"Ashland Ave & Lake St","latitude":"41.88541","longitude":"-87.66732","dpcapacity":"19","landmark":"73"},"geometry":{"type":"Point","coordinates":[-87.66732,41.88541]}},{"type":"Feature","properties":{"station_id":"120","name":"Wentworth Ave & Archer Ave","latitude":"41.854564","longitude":"-87.631937","dpcapacity":"15","landmark":"75"},"geometry":{"type":"Point","coordinates":[-87.631937,41.854564]}},{"type":"Feature","properties":{"station_id":"121","name":"Blackstone Ave & Hyde Park Blvd","latitude":"41.802562","longitude":"-87.590368","dpcapacity":"19","landmark":"398"},"geometry":{"type":"Point","coordinates":[-87.590368,41.802562]}},{"type":"Feature","properties":{"station_id":"122","name":"Ogden Ave & Congress Pkwy","latitude":"41.87501","longitude":"-87.67328","dpcapacity":"15","landmark":"81"},"geometry":{"type":"Point","coordinates":[-87.67328,41.87501]}},{"type":"Feature","properties":{"station_id":"123","name":"California Ave & Milwaukee Ave","latitude":"41.922695","longitude":"-87.697153","dpcapacity":"15","landmark":"84"},"geometry":{"type":"Point","coordinates":[-87.697153,41.922695]}},{"type":"Feature","properties":{"station_id":"124","name":"Damen Ave & Cullerton St","latitude":"41.855048","longitude":"-87.675726","dpcapacity":"15","landmark":"89"},"geometry":{"type":"Point","coordinates":[-87.675726,41.855048]}},{"type":"Feature","properties":{"station_id":"125","name":"Rush St & Hubbard St","latitude":"41.890011","longitude":"-87.626293","dpcapacity":"15","landmark":"533"},"geometry":{"type":"Point","coordinates":[-87.626293,41.890011]}},{"type":"Feature","properties":{"station_id":"126","name":"Clark St & North Ave","latitude":"41.911974","longitude":"-87.631942","dpcapacity":"15","landmark":"128"},"geometry":{"type":"Point","coordinates":[-87.631942,41.911974]}},{"type":"Feature","properties":{"station_id":"127","name":"Lincoln Ave & Fullerton Ave","latitude":"41.925905","longitude":"-87.64926","dpcapacity":"15","landmark":"131"},"geometry":{"type":"Point","coordinates":[-87.64926,41.925905]}},{"type":"Feature","properties":{"station_id":"128","name":"Damen Ave & Chicago Ave","latitude":"41.895769","longitude":"-87.67722","dpcapacity":"15","landmark":"132"},"geometry":{"type":"Point","coordinates":[-87.67722,41.895769]}},{"type":"Feature","properties":{"station_id":"129","name":"Blue Island Ave & 18th St","latitude":"41.857556","longitude":"-87.661535","dpcapacity":"15","landmark":"135"},"geometry":{"type":"Point","coordinates":[-87.661535,41.857556]}},{"type":"Feature","properties":{"station_id":"130","name":"Damen Ave & Division St","latitude":"41.90331","longitude":"-87.67695","dpcapacity":"15","landmark":"136"},"geometry":{"type":"Point","coordinates":[-87.67695,41.90331]}},{"type":"Feature","properties":{"station_id":"131","name":"Lincoln Ave & Belmont Ave","latitude":"41.939365","longitude":"-87.668385","dpcapacity":"15","landmark":"140"},"geometry":{"type":"Point","coordinates":[-87.668385,41.939365]}},{"type":"Feature","properties":{"station_id":"132","name":"Wentworth Ave & 24th St","latitude":"41.849237","longitude":"-87.631715","dpcapacity":"15","landmark":"149"},"geometry":{"type":"Point","coordinates":[-87.631715,41.849237]}},{"type":"Feature","properties":{"station_id":"133","name":"Kingsbury St & Kinzie St","latitude":"41.88917683","longitude":"-87.63850577","dpcapacity":"27","landmark":"532"},"geometry":{"type":"Point","coordinates":[-87.63850577,41.88917683]}},{"type":"Feature","properties":{"station_id":"134","name":"Peoria St & Jackson Blvd","latitude":"41.877749","longitude":"-87.649633","dpcapacity":"19","landmark":"158"},"geometry":{"type":"Point","coordinates":[-87.649633,41.877749]}},{"type":"Feature","properties":{"station_id":"135","name":"Halsted St & 21st St","latitude":"41.85378","longitude":"-87.64665","dpcapacity":"11","landmark":"162"},"geometry":{"type":"Point","coordinates":[-87.64665,41.85378]}},{"type":"Feature","properties":{"station_id":"136","name":"Racine Ave & 13th St","latitude":"41.865054","longitude":"-87.656959","dpcapacity":"15","landmark":"165"},"geometry":{"type":"Point","coordinates":[-87.656959,41.865054]}},{"type":"Feature","properties":{"station_id":"137","name":"Morgan Ave & 14th Pl","latitude":"41.862378","longitude":"-87.651062","dpcapacity":"15","landmark":"169"},"geometry":{"type":"Point","coordinates":[-87.651062,41.862378]}},{"type":"Feature","properties":{"station_id":"138","name":"Clybourn Ave & Division St","latitude":"41.904509","longitude":"-87.6405","dpcapacity":"15","landmark":"171"},"geometry":{"type":"Point","coordinates":[-87.6405,41.904509]}},{"type":"Feature","properties":{"station_id":"140","name":"Dearborn Pkwy & Delaware Pl","latitude":"41.899007","longitude":"-87.629928","dpcapacity":"19","landmark":"173"},"geometry":{"type":"Point","coordinates":[-87.629928,41.899007]}},{"type":"Feature","properties":{"station_id":"141","name":"Clark St & Lincoln Ave","latitude":"41.915689","longitude":"-87.6346","dpcapacity":"23","landmark":"179"},"geometry":{"type":"Point","coordinates":[-87.6346,41.915689]}},{"type":"Feature","properties":{"station_id":"142","name":"McClurg Ct & Erie St","latitude":"41.8943136","longitude":"-87.61742002","dpcapacity":"19","landmark":"531"},"geometry":{"type":"Point","coordinates":[-87.61742002,41.8943136]}},{"type":"Feature","properties":{"station_id":"143","name":"Sedgwick St & Webster Ave","latitude":"41.922167","longitude":"-87.638888","dpcapacity":"15","landmark":"191"},"geometry":{"type":"Point","coordinates":[-87.638888,41.922167]}},{"type":"Feature","properties":{"station_id":"144","name":"Larrabee St & Webster Ave","latitude":"41.92175","longitude":"-87.64401","dpcapacity":"15","landmark":"193"},"geometry":{"type":"Point","coordinates":[-87.64401,41.92175]}},{"type":"Feature","properties":{"station_id":"145","name":"Mies van der Rohe Way & Chestnut St","latitude":"41.89858665","longitude":"-87.62191523","dpcapacity":"19","landmark":"529"},"geometry":{"type":"Point","coordinates":[-87.62191523,41.89858665]}},{"type":"Feature","properties":{"station_id":"146","name":"Loomis St & Jackson Blvd","latitude":"41.877945","longitude":"-87.662007","dpcapacity":"11","landmark":"206"},"geometry":{"type":"Point","coordinates":[-87.662007,41.877945]}},{"type":"Feature","properties":{"station_id":"147","name":"Indiana Ave & 26th St","latitude":"41.8457","longitude":"-87.62248","dpcapacity":"15","landmark":"212"},"geometry":{"type":"Point","coordinates":[-87.62248,41.8457]}},{"type":"Feature","properties":{"station_id":"148","name":"State St & 33rd St","latitude":"41.834734","longitude":"-87.625813","dpcapacity":"11","landmark":"216"},"geometry":{"type":"Point","coordinates":[-87.625813,41.834734]}},{"type":"Feature","properties":{"station_id":"149","name":"Calumet Ave & 33rd St","latitude":"41.8349","longitude":"-87.61793","dpcapacity":"11","landmark":"217"},"geometry":{"type":"Point","coordinates":[-87.61793,41.8349]}},{"type":"Feature","properties":{"station_id":"150","name":"Fort Dearborn Dr & 31st St","latitude":"41.838556","longitude":"-87.608218","dpcapacity":"15","landmark":"220"},"geometry":{"type":"Point","coordinates":[-87.608218,41.838556]}},{"type":"Feature","properties":{"station_id":"152","name":"Lincoln Ave & Diversey Pkwy","latitude":"41.932225","longitude":"-87.658617","dpcapacity":"15","landmark":"226"},"geometry":{"type":"Point","coordinates":[-87.658617,41.932225]}},{"type":"Feature","properties":{"station_id":"153","name":"Southport Ave & Wellington Ave","latitude":"41.935733","longitude":"-87.663576","dpcapacity":"19","landmark":"228"},"geometry":{"type":"Point","coordinates":[-87.663576,41.935733]}},{"type":"Feature","properties":{"station_id":"154","name":"Southport Ave & Belmont Ave","latitude":"41.93949","longitude":"-87.66378","dpcapacity":"15","landmark":"229"},"geometry":{"type":"Point","coordinates":[-87.66378,41.93949]}},{"type":"Feature","properties":{"station_id":"156","name":"Clark St & Wellington Ave","latitude":"41.93649682","longitude":"-87.64753866","dpcapacity":"15","landmark":"232"},"geometry":{"type":"Point","coordinates":[-87.64753866,41.93649682]}},{"type":"Feature","properties":{"station_id":"157","name":"Lake Shore Dr & Wellington Ave","latitude":"41.936669","longitude":"-87.636794","dpcapacity":"15","landmark":"234"},"geometry":{"type":"Point","coordinates":[-87.636794,41.936669]}},{"type":"Feature","properties":{"station_id":"158","name":"Milwaukee Ave & Wabansia Ave","latitude":"41.912616","longitude":"-87.681391","dpcapacity":"15","landmark":"243"},"geometry":{"type":"Point","coordinates":[-87.681391,41.912616]}},{"type":"Feature","properties":{"station_id":"159","name":"Claremont Ave & Hirsch St","latitude":"41.907781","longitude":"-87.685854","dpcapacity":"11","landmark":"245"},"geometry":{"type":"Point","coordinates":[-87.685854,41.907781]}},{"type":"Feature","properties":{"station_id":"160","name":"Campbell Ave & North Ave","latitude":"41.910535","longitude":"-87.689556","dpcapacity":"15","landmark":"257"},"geometry":{"type":"Point","coordinates":[-87.689556,41.910535]}},{"type":"Feature","properties":{"station_id":"161","name":"Rush St & Superior St","latitude":"41.89576475","longitude":"-87.62590803","dpcapacity":"23","landmark":"530"},"geometry":{"type":"Point","coordinates":[-87.62590803,41.89576475]}},{"type":"Feature","properties":{"station_id":"162","name":"Damen Ave & Wellington Ave","latitude":"41.93588","longitude":"-87.67842","dpcapacity":"15","landmark":"268"},"geometry":{"type":"Point","coordinates":[-87.67842,41.93588]}},{"type":"Feature","properties":{"station_id":"163","name":"Damen Ave & Clybourn Ave","latitude":"41.931931","longitude":"-87.677856","dpcapacity":"15","landmark":"271"},"geometry":{"type":"Point","coordinates":[-87.677856,41.931931]}},{"type":"Feature","properties":{"station_id":"164","name":"Franklin St & Lake St","latitude":"41.885837","longitude":"-87.6355","dpcapacity":"23","landmark":"272"},"geometry":{"type":"Point","coordinates":[-87.6355,41.885837]}},{"type":"Feature","properties":{"station_id":"165","name":"Clark St & Grace St","latitude":"41.95078","longitude":"-87.659172","dpcapacity":"19","landmark":"275"},"geometry":{"type":"Point","coordinates":[-87.659172,41.95078]}},{"type":"Feature","properties":{"station_id":"166","name":"Ashland Ave & Wrightwood Ave","latitude":"41.92883","longitude":"-87.668507","dpcapacity":"15","landmark":"296"},"geometry":{"type":"Point","coordinates":[-87.668507,41.92883]}},{"type":"Feature","properties":{"station_id":"167","name":"Damen Ave & Coulter St","latitude":"41.8492","longitude":"-87.67564","dpcapacity":"11","landmark":"306"},"geometry":{"type":"Point","coordinates":[-87.67564,41.8492]}},{"type":"Feature","properties":{"station_id":"168","name":"Michigan Ave & 14th St","latitude":"41.864059","longitude":"-87.623727","dpcapacity":"19","landmark":"310"},"geometry":{"type":"Point","coordinates":[-87.623727,41.864059]}},{"type":"Feature","properties":{"station_id":"169","name":"Canal St & Harrison St","latitude":"41.874337","longitude":"-87.639566","dpcapacity":"15","landmark":"326"},"geometry":{"type":"Point","coordinates":[-87.639566,41.874337]}},{"type":"Feature","properties":{"station_id":"170","name":"Clinton St & 18th St","latitude":"41.85795","longitude":"-87.640826","dpcapacity":"15","landmark":"329"},"geometry":{"type":"Point","coordinates":[-87.640826,41.85795]}},{"type":"Feature","properties":{"station_id":"171","name":"May St & Cullerton St","latitude":"41.855136","longitude":"-87.654127","dpcapacity":"11","landmark":"331"},"geometry":{"type":"Point","coordinates":[-87.654127,41.855136]}},{"type":"Feature","properties":{"station_id":"172","name":"Rush St & Cedar St","latitude":"41.9023087","longitude":"-87.62769053","dpcapacity":"11","landmark":"525"},"geometry":{"type":"Point","coordinates":[-87.62769053,41.9023087]}},{"type":"Feature","properties":{"station_id":"173","name":"Mies van der Rohe Way & Chicago Ave","latitude":"41.89691","longitude":"-87.621743","dpcapacity":"15","landmark":"338"},"geometry":{"type":"Point","coordinates":[-87.621743,41.89691]}},{"type":"Feature","properties":{"station_id":"174","name":"Canal St & Madison St","latitude":"41.882091","longitude":"-87.639833","dpcapacity":"23","landmark":"341"},"geometry":{"type":"Point","coordinates":[-87.639833,41.882091]}},{"type":"Feature","properties":{"station_id":"175","name":"Wells St & Polk St","latitude":"41.872373","longitude":"-87.633523","dpcapacity":"19","landmark":"344"},"geometry":{"type":"Point","coordinates":[-87.633523,41.872373]}},{"type":"Feature","properties":{"station_id":"176","name":"Clark St & Elm St","latitude":"41.903233","longitude":"-87.631253","dpcapacity":"19","landmark":"349"},"geometry":{"type":"Point","coordinates":[-87.631253,41.903233]}},{"type":"Feature","properties":{"station_id":"177","name":"Theater on the Lake","latitude":"41.926277","longitude":"-87.630834","dpcapacity":"23","landmark":"350"},"geometry":{"type":"Point","coordinates":[-87.630834,41.926277]}},{"type":"Feature","properties":{"station_id":"178","name":"State St & 19th St","latitude":"41.856594","longitude":"-87.627542","dpcapacity":"15","landmark":"408"},"geometry":{"type":"Point","coordinates":[-87.627542,41.856594]}},{"type":"Feature","properties":{"station_id":"179","name":"MLK Jr Dr & Oakwood Blvd","latitude":"41.82256","longitude":"-87.61615","dpcapacity":"15","landmark":"420"},"geometry":{"type":"Point","coordinates":[-87.61615,41.82256]}},{"type":"Feature","properties":{"station_id":"180","name":"Ritchie Ct & Banks St","latitude":"41.906782","longitude":"-87.626402","dpcapacity":"15","landmark":"523"},"geometry":{"type":"Point","coordinates":[-87.626402,41.906782]}},{"type":"Feature","properties":{"station_id":"181","name":"LaSalle St & Illinois St","latitude":"41.890749","longitude":"-87.63206","dpcapacity":"31","landmark":"430"},"geometry":{"type":"Point","coordinates":[-87.63206,41.890749]}},{"type":"Feature","properties":{"station_id":"182","name":"Wells St & Elm St","latitude":"41.903222","longitude":"-87.634324","dpcapacity":"23","landmark":"522"},"geometry":{"type":"Point","coordinates":[-87.634324,41.903222]}},{"type":"Feature","properties":{"station_id":"183","name":"Damen Ave & Augusta Blvd","latitude":"41.899714","longitude":"-87.677234","dpcapacity":"15","landmark":"142"},"geometry":{"type":"Point","coordinates":[-87.677234,41.899714]}},{"type":"Feature","properties":{"station_id":"184","name":"State St & 35th St","latitude":"41.83104","longitude":"-87.62688","dpcapacity":"19","landmark":"82"},"geometry":{"type":"Point","coordinates":[-87.62688,41.83104]}},{"type":"Feature","properties":{"station_id":"185","name":"Stave St & Armitage Ave","latitude":"41.917741","longitude":"-87.691392","dpcapacity":"11","landmark":"266"},"geometry":{"type":"Point","coordinates":[-87.691392,41.917741]}},{"type":"Feature","properties":{"station_id":"186","name":"Ogden Ave & Race Ave","latitude":"41.891795","longitude":"-87.658751","dpcapacity":"15","landmark":"194"},"geometry":{"type":"Point","coordinates":[-87.658751,41.891795]}},{"type":"Feature","properties":{"station_id":"188","name":"Greenview Ave & Fullerton Ave","latitude":"41.92533","longitude":"-87.6658","dpcapacity":"15","landmark":"295"},"geometry":{"type":"Point","coordinates":[-87.6658,41.92533]}},{"type":"Feature","properties":{"station_id":"190","name":"Southport Ave & Wrightwood Ave","latitude":"41.92888","longitude":"-87.66317","dpcapacity":"15","landmark":"298"},"geometry":{"type":"Point","coordinates":[-87.66317,41.92888]}},{"type":"Feature","properties":{"station_id":"191","name":"Canal St & Monroe St","latitude":"41.8807","longitude":"-87.63947","dpcapacity":"23","landmark":"56"},"geometry":{"type":"Point","coordinates":[-87.63947,41.8807]}},{"type":"Feature","properties":{"station_id":"192","name":"Canal St & Adams St","latitude":"41.879255","longitude":"-87.639904","dpcapacity":"39","landmark":"11"},"geometry":{"type":"Point","coordinates":[-87.639904,41.879255]}},{"type":"Feature","properties":{"station_id":"193","name":"State St & 29th St","latitude":"41.841707","longitude":"-87.626938","dpcapacity":"15","landmark":"213"},"geometry":{"type":"Point","coordinates":[-87.626938,41.841707]}},{"type":"Feature","properties":{"station_id":"194","name":"Wabash Ave & Wacker Pl","latitude":"41.886875","longitude":"-87.62603","dpcapacity":"19","landmark":"339"},"geometry":{"type":"Point","coordinates":[-87.62603,41.886875]}},{"type":"Feature","properties":{"station_id":"195","name":"Columbus Dr & Randolph St","latitude":"41.884728","longitude":"-87.619521","dpcapacity":"31","landmark":"263"},"geometry":{"type":"Point","coordinates":[-87.619521,41.884728]}},{"type":"Feature","properties":{"station_id":"196","name":"Cityfront Plaza Dr & Pioneer Ct","latitude":"41.890252","longitude":"-87.622105","dpcapacity":"19","landmark":"427"},"geometry":{"type":"Point","coordinates":[-87.622105,41.890252]}},{"type":"Feature","properties":{"station_id":"197","name":"Michigan Ave & Madison St","latitude":"41.882134","longitude":"-87.625125","dpcapacity":"19","landmark":"36"},"geometry":{"type":"Point","coordinates":[-87.625125,41.882134]}},{"type":"Feature","properties":{"station_id":"198","name":"Halsted St & Madison St","latitude":"41.88175","longitude":"-87.6478","dpcapacity":"19","landmark":"159"},"geometry":{"type":"Point","coordinates":[-87.6478,41.88175]}},{"type":"Feature","properties":{"station_id":"199","name":"Wabash Ave & Grand Ave","latitude":"41.891738","longitude":"-87.626937","dpcapacity":"15","landmark":"4"},"geometry":{"type":"Point","coordinates":[-87.626937,41.891738]}},{"type":"Feature","properties":{"station_id":"200","name":"MLK Jr Dr & 47th St","latitude":"41.809851","longitude":"-87.616279","dpcapacity":"11","landmark":"90"},"geometry":{"type":"Point","coordinates":[-87.616279,41.809851]}},{"type":"Feature","properties":{"station_id":"201","name":"Indiana Ave & 40th St","latitude":"41.82168","longitude":"-87.6216","dpcapacity":"15","landmark":"83"},"geometry":{"type":"Point","coordinates":[-87.6216,41.82168]}},{"type":"Feature","properties":{"station_id":"202","name":"Halsted St & 18th St","latitude":"41.857499","longitude":"-87.646277","dpcapacity":"15","landmark":"99"},"geometry":{"type":"Point","coordinates":[-87.646277,41.857499]}},{"type":"Feature","properties":{"station_id":"203","name":"Western Ave & 21st St","latitude":"41.85394","longitude":"-87.685243","dpcapacity":"15","landmark":"91"},"geometry":{"type":"Point","coordinates":[-87.685243,41.85394]}},{"type":"Feature","properties":{"station_id":"204","name":"Prairie Ave & Garfield Blvd","latitude":"41.794853","longitude":"-87.618691","dpcapacity":"15","landmark":"101"},"geometry":{"type":"Point","coordinates":[-87.618691,41.794853]}},{"type":"Feature","properties":{"station_id":"205","name":"Paulina St & 18th St","latitude":"41.857901","longitude":"-87.668745","dpcapacity":"15","landmark":"88"},"geometry":{"type":"Point","coordinates":[-87.668745,41.857901]}},{"type":"Feature","properties":{"station_id":"206","name":"Halsted St & Archer Ave","latitude":"41.847203","longitude":"-87.646795","dpcapacity":"15","landmark":"98"},"geometry":{"type":"Point","coordinates":[-87.646795,41.847203]}},{"type":"Feature","properties":{"station_id":"207","name":"Emerald Ave & 28th St","latitude":"41.84358","longitude":"-87.645368","dpcapacity":"15","landmark":"399"},"geometry":{"type":"Point","coordinates":[-87.645368,41.84358]}},{"type":"Feature","properties":{"station_id":"208","name":"Ashland Ave & 21st St","latitude":"41.85381","longitude":"-87.665897","dpcapacity":"15","landmark":"307"},"geometry":{"type":"Point","coordinates":[-87.665897,41.85381]}},{"type":"Feature","properties":{"station_id":"209","name":"Normal Ave & Archer Ave","latitude":"41.849527","longitude":"-87.640591","dpcapacity":"11","landmark":"308"},"geometry":{"type":"Point","coordinates":[-87.640591,41.849527]}},{"type":"Feature","properties":{"station_id":"210","name":"Ashland Ave & Division St","latitude":"41.90345","longitude":"-87.667747","dpcapacity":"19","landmark":"61"},"geometry":{"type":"Point","coordinates":[-87.667747,41.90345]}},{"type":"Feature","properties":{"station_id":"211","name":"St. Clair St & Erie St","latitude":"41.894448","longitude":"-87.622663","dpcapacity":"19","landmark":"16"},"geometry":{"type":"Point","coordinates":[-87.622663,41.894448]}},{"type":"Feature","properties":{"station_id":"212","name":"Wells St & Hubbard St","latitude":"41.889933","longitude":"-87.634262","dpcapacity":"31","landmark":"264"},"geometry":{"type":"Point","coordinates":[-87.634262,41.889933]}},{"type":"Feature","properties":{"station_id":"213","name":"Leavitt St & North Ave","latitude":"41.910153","longitude":"-87.68229","dpcapacity":"15","landmark":"244"},"geometry":{"type":"Point","coordinates":[-87.68229,41.910153]}},{"type":"Feature","properties":{"station_id":"214","name":"Damen Ave & Grand Ave","latitude":"41.89122","longitude":"-87.67686","dpcapacity":"15","landmark":"141"},"geometry":{"type":"Point","coordinates":[-87.67686,41.89122]}},{"type":"Feature","properties":{"station_id":"215","name":"Damen Ave & Madison St","latitude":"41.88137","longitude":"-87.67493","dpcapacity":"15","landmark":"134"},"geometry":{"type":"Point","coordinates":[-87.67493,41.88137]}},{"type":"Feature","properties":{"station_id":"216","name":"California Ave & Division St","latitude":"41.903029","longitude":"-87.697474","dpcapacity":"15","landmark":"256"},"geometry":{"type":"Point","coordinates":[-87.697474,41.903029]}},{"type":"Feature","properties":{"station_id":"217","name":"May St & Fulton St","latitude":"41.886773","longitude":"-87.656001","dpcapacity":"15","landmark":"197"},"geometry":{"type":"Point","coordinates":[-87.656001,41.886773]}},{"type":"Feature","properties":{"station_id":"218","name":"Wells St & 19th St","latitude":"41.856802","longitude":"-87.633879","dpcapacity":"11","landmark":"180"},"geometry":{"type":"Point","coordinates":[-87.633879,41.856802]}},{"type":"Feature","properties":{"station_id":"219","name":"Damen Ave & Cortland St","latitude":"41.916027","longitude":"-87.677411","dpcapacity":"11","landmark":"133"},"geometry":{"type":"Point","coordinates":[-87.677411,41.916027]}},{"type":"Feature","properties":{"station_id":"220","name":"Hampden Ct & Diversey Pkwy","latitude":"41.93262","longitude":"-87.642385","dpcapacity":"19","landmark":"123"},"geometry":{"type":"Point","coordinates":[-87.642385,41.93262]}},{"type":"Feature","properties":{"station_id":"222","name":"Milwaukee Ave & Rockwell St","latitude":"41.920195","longitude":"-87.693033","dpcapacity":"19","landmark":"242"},"geometry":{"type":"Point","coordinates":[-87.693033,41.920195]}},{"type":"Feature","properties":{"station_id":"223","name":"Clifton Ave & Armitage Ave","latitude":"41.918216","longitude":"-87.656936","dpcapacity":"15","landmark":"185"},"geometry":{"type":"Point","coordinates":[-87.656936,41.918216]}},{"type":"Feature","properties":{"station_id":"224","name":"Halsted St & Willow St","latitude":"41.913778","longitude":"-87.64884","dpcapacity":"19","landmark":"181"},"geometry":{"type":"Point","coordinates":[-87.64884,41.913778]}},{"type":"Feature","properties":{"station_id":"225","name":"Halsted St & Dickens Ave","latitude":"41.919936","longitude":"-87.64883","dpcapacity":"15","landmark":"192"},"geometry":{"type":"Point","coordinates":[-87.64883,41.919936]}},{"type":"Feature","properties":{"station_id":"226","name":"Racine Ave & Belmont Ave","latitude":"41.939743","longitude":"-87.658865","dpcapacity":"15","landmark":"230"},"geometry":{"type":"Point","coordinates":[-87.658865,41.939743]}},{"type":"Feature","properties":{"station_id":"227","name":"Southport Ave & Waveland Ave","latitude":"41.94815","longitude":"-87.66394","dpcapacity":"15","landmark":"235"},"geometry":{"type":"Point","coordinates":[-87.66394,41.94815]}},{"type":"Feature","properties":{"station_id":"228","name":"Damen Ave & Melrose Ave","latitude":"41.9406","longitude":"-87.6785","dpcapacity":"11","landmark":"143"},"geometry":{"type":"Point","coordinates":[-87.6785,41.9406]}},{"type":"Feature","properties":{"station_id":"229","name":"Southport Ave & Roscoe St","latitude":"41.943739","longitude":"-87.66402","dpcapacity":"19","landmark":"71"},"geometry":{"type":"Point","coordinates":[-87.66402,41.943739]}},{"type":"Feature","properties":{"station_id":"230","name":"Lincoln Ave & Roscoe St","latitude":"41.94334","longitude":"-87.67097","dpcapacity":"19","landmark":"78"},"geometry":{"type":"Point","coordinates":[-87.67097,41.94334]}},{"type":"Feature","properties":{"station_id":"231","name":"Sheridan Rd & Montrose Ave","latitude":"41.96167","longitude":"-87.65464","dpcapacity":"15","landmark":"130"},"geometry":{"type":"Point","coordinates":[-87.65464,41.96167]}},{"type":"Feature","properties":{"station_id":"232","name":"Pine Grove Ave & Waveland Ave","latitude":"41.949275","longitude":"-87.646303","dpcapacity":"23","landmark":"273"},"geometry":{"type":"Point","coordinates":[-87.646303,41.949275]}},{"type":"Feature","properties":{"station_id":"233","name":"Sangamon St & Washington Blvd","latitude":"41.883004","longitude":"-87.651148","dpcapacity":"15","landmark":"409"},"geometry":{"type":"Point","coordinates":[-87.651148,41.883004]}},{"type":"Feature","properties":{"station_id":"234","name":"Clark St & Montrose Ave","latitude":"41.961588","longitude":"-87.666036","dpcapacity":"19","landmark":"316"},"geometry":{"type":"Point","coordinates":[-87.666036,41.961588]}},{"type":"Feature","properties":{"station_id":"236","name":"Sedgwick St & Schiller St","latitude":"41.907576","longitude":"-87.638517","dpcapacity":"15","landmark":"410"},"geometry":{"type":"Point","coordinates":[-87.638517,41.907576]}},{"type":"Feature","properties":{"station_id":"237","name":"MLK Jr Dr & 29th St","latitude":"41.842052","longitude":"-87.617","dpcapacity":"15","landmark":"214"},"geometry":{"type":"Point","coordinates":[-87.617,41.842052]}},{"type":"Feature","properties":{"station_id":"238","name":"Ravenswood Ave & Montrose Ave","latitude":"41.961615","longitude":"-87.674365","dpcapacity":"15","landmark":"92"},"geometry":{"type":"Point","coordinates":[-87.674365,41.961615]}},{"type":"Feature","properties":{"station_id":"239","name":"Western Ave & Leland Ave","latitude":"41.966555","longitude":"-87.688487","dpcapacity":"19","landmark":"112"},"geometry":{"type":"Point","coordinates":[-87.688487,41.966555]}},{"type":"Feature","properties":{"station_id":"240","name":"Sheridan Rd & Irving Park Rd","latitude":"41.954245","longitude":"-87.654406","dpcapacity":"23","landmark":"63"},"geometry":{"type":"Point","coordinates":[-87.654406,41.954245]}},{"type":"Feature","properties":{"station_id":"241","name":"Morgan St & Polk St","latitude":"41.871737","longitude":"-87.65103","dpcapacity":"15","landmark":"168"},"geometry":{"type":"Point","coordinates":[-87.65103,41.871737]}},{"type":"Feature","properties":{"station_id":"242","name":"Damen Ave & Leland Ave","latitude":"41.967094","longitude":"-87.679028","dpcapacity":"15","landmark":"93"},"geometry":{"type":"Point","coordinates":[-87.679028,41.967094]}},{"type":"Feature","properties":{"station_id":"243","name":"Lincoln Ave & Leavitt St","latitude":"41.962391","longitude":"-87.684146","dpcapacity":"15","landmark":"126"},"geometry":{"type":"Point","coordinates":[-87.684146,41.962391]}},{"type":"Feature","properties":{"station_id":"244","name":"Ravenswood Ave & Irving Park Rd","latitude":"41.95469","longitude":"-87.67393","dpcapacity":"19","landmark":"87"},"geometry":{"type":"Point","coordinates":[-87.67393,41.95469]}},{"type":"Feature","properties":{"station_id":"245","name":"Clarendon Ave & Junior Ter","latitude":"41.961004","longitude":"-87.649603","dpcapacity":"15","landmark":"389"},"geometry":{"type":"Point","coordinates":[-87.649603,41.961004]}},{"type":"Feature","properties":{"station_id":"246","name":"Ashland Ave & Belle Plaine Ave","latitude":"41.956061","longitude":"-87.668869","dpcapacity":"11","landmark":"249"},"geometry":{"type":"Point","coordinates":[-87.668869,41.956061]}},{"type":"Feature","properties":{"station_id":"247","name":"Shore Drive & 55th St","latitude":"41.795212","longitude":"-87.580715","dpcapacity":"19","landmark":"361"},"geometry":{"type":"Point","coordinates":[-87.580715,41.795212]}},{"type":"Feature","properties":{"station_id":"248","name":"Woodlawn Ave & 55th St","latitude":"41.795264","longitude":"-87.596471","dpcapacity":"19","landmark":"362"},"geometry":{"type":"Point","coordinates":[-87.596471,41.795264]}},{"type":"Feature","properties":{"station_id":"249","name":"Montrose Harbor","latitude":"41.963982","longitude":"-87.638181","dpcapacity":"31","landmark":"388"},"geometry":{"type":"Point","coordinates":[-87.638181,41.963982]}},{"type":"Feature","properties":{"station_id":"250","name":"Ashland Ave & Wellington Ave","latitude":"41.936083","longitude":"-87.669807","dpcapacity":"19","landmark":"269"},"geometry":{"type":"Point","coordinates":[-87.669807,41.936083]}},{"type":"Feature","properties":{"station_id":"251","name":"Clarendon Ave & Leland Ave","latitude":"41.967968","longitude":"-87.650001","dpcapacity":"15","landmark":"385"},"geometry":{"type":"Point","coordinates":[-87.650001,41.967968]}},{"type":"Feature","properties":{"station_id":"252","name":"Greenwood Ave & 47th St","latitude":"41.809835","longitude":"-87.599383","dpcapacity":"15","landmark":"396"},"geometry":{"type":"Point","coordinates":[-87.599383,41.809835]}},{"type":"Feature","properties":{"station_id":"253","name":"Clifton Ave & Lawrence Ave","latitude":"41.968873","longitude":"-87.658857","dpcapacity":"15","landmark":"104"},"geometry":{"type":"Point","coordinates":[-87.658857,41.968873]}},{"type":"Feature","properties":{"station_id":"254","name":"Pine Grove Ave & Irving Park Rd","latitude":"41.954383","longitude":"-87.648043","dpcapacity":"15","landmark":"324"},"geometry":{"type":"Point","coordinates":[-87.648043,41.954383]}},{"type":"Feature","properties":{"station_id":"255","name":"Indiana Ave & Roosevelt Rd","latitude":"41.867888","longitude":"-87.623041","dpcapacity":"31","landmark":"309"},"geometry":{"type":"Point","coordinates":[-87.623041,41.867888]}},{"type":"Feature","properties":{"station_id":"256","name":"Broadway & Sheridan Rd","latitude":"41.952833","longitude":"-87.649993","dpcapacity":"15","landmark":"323"},"geometry":{"type":"Point","coordinates":[-87.649993,41.952833]}},{"type":"Feature","properties":{"station_id":"257","name":"Lincoln Ave & Waveland Ave","latitude":"41.94911","longitude":"-87.675112","dpcapacity":"15","landmark":"253"},"geometry":{"type":"Point","coordinates":[-87.675112,41.94911]}},{"type":"Feature","properties":{"station_id":"258","name":"Logan Blvd & Elston Ave","latitude":"41.930584","longitude":"-87.685126","dpcapacity":"19","landmark":"145"},"geometry":{"type":"Point","coordinates":[-87.685126,41.930584]}},{"type":"Feature","properties":{"station_id":"259","name":"California Ave & Francis Pl","latitude":"41.918121","longitude":"-87.696972","dpcapacity":"15","landmark":"259"},"geometry":{"type":"Point","coordinates":[-87.696972,41.918121]}},{"type":"Feature","properties":{"station_id":"260","name":"Kedzie Ave & Milwaukee Ave","latitude":"41.929567","longitude":"-87.707857","dpcapacity":"19","landmark":"85"},"geometry":{"type":"Point","coordinates":[-87.707857,41.929567]}},{"type":"Feature","properties":{"station_id":"261","name":"Hermitage Ave & Polk St","latitude":"41.871514","longitude":"-87.669886","dpcapacity":"15","landmark":"80"},"geometry":{"type":"Point","coordinates":[-87.669886,41.871514]}},{"type":"Feature","properties":{"station_id":"262","name":"Halsted St & 37th St","latitude":"41.827071","longitude":"-87.645801","dpcapacity":"11","landmark":"414"},"geometry":{"type":"Point","coordinates":[-87.645801,41.827071]}},{"type":"Feature","properties":{"station_id":"263","name":"Rhodes Ave & 32nd St","latitude":"41.836208","longitude":"-87.613533","dpcapacity":"11","landmark":"215"},"geometry":{"type":"Point","coordinates":[-87.613533,41.836208]}},{"type":"Feature","properties":{"station_id":"264","name":"Stetson Ave & South Water St","latitude":"41.886835","longitude":"-87.62232","dpcapacity":"19","landmark":"48"},"geometry":{"type":"Point","coordinates":[-87.62232,41.886835]}},{"type":"Feature","properties":{"station_id":"265","name":"Cottage Grove Ave & Oakwood Blvd","latitude":"41.822985","longitude":"-87.6071","dpcapacity":"15","landmark":"346"},"geometry":{"type":"Point","coordinates":[-87.6071,41.822985]}},{"type":"Feature","properties":{"station_id":"267","name":"Lake Park Ave & 47th St","latitude":"41.809443","longitude":"-87.591875","dpcapacity":"15","landmark":"117"},"geometry":{"type":"Point","coordinates":[-87.591875,41.809443]}},{"type":"Feature","properties":{"station_id":"268","name":"Lake Shore Dr & North Blvd","latitude":"41.911722","longitude":"-87.626804","dpcapacity":"39","landmark":"328"},"geometry":{"type":"Point","coordinates":[-87.626804,41.911722]}},{"type":"Feature","properties":{"station_id":"270","name":"Stony Island Ave & 75th St","latitude":"41.75866967","longitude":"-87.58688287","dpcapacity":"15","landmark":"498"},"geometry":{"type":"Point","coordinates":[-87.58688287,41.75866967]}},{"type":"Feature","properties":{"station_id":"271","name":"Cottage Grove Ave & 43rd St","latitude":"41.816499","longitude":"-87.606582","dpcapacity":"11","landmark":"86"},"geometry":{"type":"Point","coordinates":[-87.606582,41.816499]}},{"type":"Feature","properties":{"station_id":"272","name":"Indiana Ave & 31st St","latitude":"41.838842","longitude":"-87.621857","dpcapacity":"11","landmark":"219"},"geometry":{"type":"Point","coordinates":[-87.621857,41.838842]}},{"type":"Feature","properties":{"station_id":"273","name":"Michigan Ave & 16th St","latitude":"41.860204","longitude":"-87.623355","dpcapacity":"15","landmark":"150"},"geometry":{"type":"Point","coordinates":[-87.623355,41.860204]}},{"type":"Feature","properties":{"station_id":"274","name":"Racine Ave & 15th St","latitude":"41.861267","longitude":"-87.656625","dpcapacity":"15","landmark":"304"},"geometry":{"type":"Point","coordinates":[-87.656625,41.861267]}},{"type":"Feature","properties":{"station_id":"275","name":"Ashland Ave & 13th St","latitude":"41.865234","longitude":"-87.666507","dpcapacity":"15","landmark":"354"},"geometry":{"type":"Point","coordinates":[-87.666507,41.865234]}},{"type":"Feature","properties":{"station_id":"276","name":"California Ave & North Ave","latitude":"41.91044","longitude":"-87.6972","dpcapacity":"11","landmark":"258"},"geometry":{"type":"Point","coordinates":[-87.6972,41.91044]}},{"type":"Feature","properties":{"station_id":"277","name":"Ashland Ave & Grand Ave","latitude":"41.891072","longitude":"-87.666611","dpcapacity":"15","landmark":"434"},"geometry":{"type":"Point","coordinates":[-87.666611,41.891072]}},{"type":"Feature","properties":{"station_id":"278","name":"Wallace St & 35th St","latitude":"41.830629","longitude":"-87.64129","dpcapacity":"15","landmark":"417"},"geometry":{"type":"Point","coordinates":[-87.64129,41.830629]}},{"type":"Feature","properties":{"station_id":"279","name":"Halsted St & 35th St","latitude":"41.830661","longitude":"-87.647172","dpcapacity":"15","landmark":"413"},"geometry":{"type":"Point","coordinates":[-87.647172,41.830661]}},{"type":"Feature","properties":{"station_id":"280","name":"Morgan St & 31st St","latitude":"41.8378","longitude":"-87.65114","dpcapacity":"11","landmark":"97"},"geometry":{"type":"Point","coordinates":[-87.65114,41.8378]}},{"type":"Feature","properties":{"station_id":"281","name":"Western Ave & 24th St","latitude":"41.84847","longitude":"-87.685109","dpcapacity":"15","landmark":"393"},"geometry":{"type":"Point","coordinates":[-87.685109,41.84847]}},{"type":"Feature","properties":{"station_id":"282","name":"Halsted St & Maxwell St","latitude":"41.86458","longitude":"-87.64693","dpcapacity":"15","landmark":"161"},"geometry":{"type":"Point","coordinates":[-87.64693,41.86458]}},{"type":"Feature","properties":{"station_id":"283","name":"LaSalle St & Jackson Blvd","latitude":"41.87817","longitude":"-87.631985","dpcapacity":"31","landmark":"32"},"geometry":{"type":"Point","coordinates":[-87.631985,41.87817]}},{"type":"Feature","properties":{"station_id":"284","name":"Michigan Ave & Jackson Blvd","latitude":"41.87785","longitude":"-87.62408","dpcapacity":"23","landmark":"340"},"geometry":{"type":"Point","coordinates":[-87.62408,41.87785]}},{"type":"Feature","properties":{"station_id":"285","name":"Wood St & Grand Ave","latitude":"41.89113","longitude":"-87.67203","dpcapacity":"15","landmark":"432"},"geometry":{"type":"Point","coordinates":[-87.67203,41.89113]}},{"type":"Feature","properties":{"station_id":"286","name":"Franklin St & Quincy St","latitude":"41.878724","longitude":"-87.634793","dpcapacity":"23","landmark":"7"},"geometry":{"type":"Point","coordinates":[-87.634793,41.878724]}},{"type":"Feature","properties":{"station_id":"287","name":"Franklin St & Arcade Pl","latitude":"41.881469","longitude":"-87.635177","dpcapacity":"27","landmark":"57"},"geometry":{"type":"Point","coordinates":[-87.635177,41.881469]}},{"type":"Feature","properties":{"station_id":"288","name":"Larrabee St & Armitage Ave","latitude":"41.91797","longitude":"-87.64368","dpcapacity":"11","landmark":"184"},"geometry":{"type":"Point","coordinates":[-87.64368,41.91797]}},{"type":"Feature","properties":{"station_id":"289","name":"Wells St & Concord Ln","latitude":"41.912202","longitude":"-87.634664","dpcapacity":"19","landmark":"182"},"geometry":{"type":"Point","coordinates":[-87.634664,41.912202]}},{"type":"Feature","properties":{"station_id":"290","name":"Kedzie Ave & Palmer Ct","latitude":"41.921525","longitude":"-87.707322","dpcapacity":"15","landmark":"292"},"geometry":{"type":"Point","coordinates":[-87.707322,41.921525]}},{"type":"Feature","properties":{"station_id":"291","name":"Wells St & Evergreen Ave","latitude":"41.906724","longitude":"-87.63483","dpcapacity":"19","landmark":"302"},"geometry":{"type":"Point","coordinates":[-87.63483,41.906724]}},{"type":"Feature","properties":{"station_id":"292","name":"Southport Ave & Clark St","latitude":"41.957081","longitude":"-87.664199","dpcapacity":"11","landmark":"317"},"geometry":{"type":"Point","coordinates":[-87.664199,41.957081]}},{"type":"Feature","properties":{"station_id":"293","name":"Broadway & Wilson Ave","latitude":"41.965485","longitude":"-87.657238","dpcapacity":"19","landmark":"74"},"geometry":{"type":"Point","coordinates":[-87.657238,41.965485]}},{"type":"Feature","properties":{"station_id":"294","name":"Broadway & Berwyn Ave","latitude":"41.978353","longitude":"-87.659753","dpcapacity":"15","landmark":"109"},"geometry":{"type":"Point","coordinates":[-87.659753,41.978353]}},{"type":"Feature","properties":{"station_id":"295","name":"Broadway & Argyle St","latitude":"41.972972","longitude":"-87.659637","dpcapacity":"15","landmark":"108"},"geometry":{"type":"Point","coordinates":[-87.659637,41.972972]}},{"type":"Feature","properties":{"station_id":"296","name":"Broadway & Belmont Ave","latitude":"41.940106","longitude":"-87.645451","dpcapacity":"15","landmark":"277"},"geometry":{"type":"Point","coordinates":[-87.645451,41.940106]}},{"type":"Feature","properties":{"station_id":"297","name":"Paulina St & Montrose Ave","latitude":"41.961507","longitude":"-87.671387","dpcapacity":"15","landmark":"250"},"geometry":{"type":"Point","coordinates":[-87.671387,41.961507]}},{"type":"Feature","properties":{"station_id":"298","name":"Lincoln Ave & Belle Plaine Ave","latitude":"41.955927","longitude":"-87.679259","dpcapacity":"15","landmark":"252"},"geometry":{"type":"Point","coordinates":[-87.679259,41.955927]}},{"type":"Feature","properties":{"station_id":"299","name":"Halsted St & Roscoe St","latitude":"41.94367","longitude":"-87.64895","dpcapacity":"15","landmark":"127"},"geometry":{"type":"Point","coordinates":[-87.64895,41.94367]}},{"type":"Feature","properties":{"station_id":"300","name":"Broadway & Barry Ave","latitude":"41.937725","longitude":"-87.644095","dpcapacity":"19","landmark":"137"},"geometry":{"type":"Point","coordinates":[-87.644095,41.937725]}},{"type":"Feature","properties":{"station_id":"301","name":"Clark St & Schiller St","latitude":"41.907993","longitude":"-87.631501","dpcapacity":"19","landmark":"200"},"geometry":{"type":"Point","coordinates":[-87.631501,41.907993]}},{"type":"Feature","properties":{"station_id":"302","name":"Sheffield Ave & Wrightwood Ave","latitude":"41.928712","longitude":"-87.653833","dpcapacity":"19","landmark":"211"},"geometry":{"type":"Point","coordinates":[-87.653833,41.928712]}},{"type":"Feature","properties":{"station_id":"303","name":"Broadway & Cornelia Ave","latitude":"41.945512","longitude":"-87.64598","dpcapacity":"15","landmark":"278"},"geometry":{"type":"Point","coordinates":[-87.64598,41.945512]}},{"type":"Feature","properties":{"station_id":"304","name":"Broadway & Waveland Ave","latitude":"41.949078","longitude":"-87.648536","dpcapacity":"15","landmark":"325"},"geometry":{"type":"Point","coordinates":[-87.648536,41.949078]}},{"type":"Feature","properties":{"station_id":"305","name":"Western Ave & Division St","latitude":"41.902893","longitude":"-87.687275","dpcapacity":"15","landmark":"241"},"geometry":{"type":"Point","coordinates":[-87.687275,41.902893]}},{"type":"Feature","properties":{"station_id":"306","name":"Sheridan Rd & Buena Ave","latitude":"41.9584","longitude":"-87.65423","dpcapacity":"15","landmark":"374"},"geometry":{"type":"Point","coordinates":[-87.65423,41.9584]}},{"type":"Feature","properties":{"station_id":"307","name":"Southport Ave & Clybourn Ave","latitude":"41.920445","longitude":"-87.663095","dpcapacity":"15","landmark":"186"},"geometry":{"type":"Point","coordinates":[-87.663095,41.920445]}},{"type":"Feature","properties":{"station_id":"308","name":"Seeley Ave & Roscoe St","latitude":"41.943403","longitude":"-87.679618","dpcapacity":"11","landmark":"144"},"geometry":{"type":"Point","coordinates":[-87.679618,41.943403]}},{"type":"Feature","properties":{"station_id":"309","name":"Leavitt St & Armitage Ave","latitude":"41.917805","longitude":"-87.682437","dpcapacity":"11","landmark":"286"},"geometry":{"type":"Point","coordinates":[-87.682437,41.917805]}},{"type":"Feature","properties":{"station_id":"310","name":"Damen Ave & Charleston St","latitude":"41.920082","longitude":"-87.677855","dpcapacity":"11","landmark":"288"},"geometry":{"type":"Point","coordinates":[-87.677855,41.920082]}},{"type":"Feature","properties":{"station_id":"311","name":"Leavitt St & Lawrence Ave","latitude":"41.968885","longitude":"-87.684001","dpcapacity":"19","landmark":"237"},"geometry":{"type":"Point","coordinates":[-87.684001,41.968885]}},{"type":"Feature","properties":{"station_id":"312","name":"Clarendon Ave & Gordon Ter","latitude":"41.957879","longitude":"-87.649519","dpcapacity":"15","landmark":"379"},"geometry":{"type":"Point","coordinates":[-87.649519,41.957879]}},{"type":"Feature","properties":{"station_id":"313","name":"Lakeview Ave & Fullerton Pkwy","latitude":"41.925858","longitude":"-87.638973","dpcapacity":"19","landmark":"147"},"geometry":{"type":"Point","coordinates":[-87.638973,41.925858]}},{"type":"Feature","properties":{"station_id":"314","name":"Ravenswood Ave & Berteau Ave","latitude":"41.957921","longitude":"-87.673567","dpcapacity":"15","landmark":"251"},"geometry":{"type":"Point","coordinates":[-87.673567,41.957921]}},{"type":"Feature","properties":{"station_id":"315","name":"Leavitt St & Hirsch St","latitude":"41.906717","longitude":"-87.682779","dpcapacity":"11","landmark":"255"},"geometry":{"type":"Point","coordinates":[-87.682779,41.906717]}},{"type":"Feature","properties":{"station_id":"316","name":"Damen Ave & Sunnyside Ave","latitude":"41.96325","longitude":"-87.679258","dpcapacity":"19","landmark":"315"},"geometry":{"type":"Point","coordinates":[-87.679258,41.96325]}},{"type":"Feature","properties":{"station_id":"317","name":"Wood St & Taylor St","latitude":"41.869154","longitude":"-87.671045","dpcapacity":"15","landmark":"285"},"geometry":{"type":"Point","coordinates":[-87.671045,41.869154]}},{"type":"Feature","properties":{"station_id":"318","name":"Southport Ave & Irving Park Rd","latitude":"41.954177","longitude":"-87.664358","dpcapacity":"15","landmark":"321"},"geometry":{"type":"Point","coordinates":[-87.664358,41.954177]}},{"type":"Feature","properties":{"station_id":"319","name":"Greenview Ave & Diversey Pkwy","latitude":"41.932595","longitude":"-87.665939","dpcapacity":"15","landmark":"294"},"geometry":{"type":"Point","coordinates":[-87.665939,41.932595]}},{"type":"Feature","properties":{"station_id":"320","name":"Loomis St & Lexington St","latitude":"41.872187","longitude":"-87.661501","dpcapacity":"15","landmark":"332"},"geometry":{"type":"Point","coordinates":[-87.661501,41.872187]}},{"type":"Feature","properties":{"station_id":"321","name":"Wabash Ave & 8th St","latitude":"41.871962","longitude":"-87.626106","dpcapacity":"19","landmark":"54"},"geometry":{"type":"Point","coordinates":[-87.626106,41.871962]}},{"type":"Feature","properties":{"station_id":"322","name":"Kimbark Ave & 53rd St","latitude":"41.799568","longitude":"-87.594747","dpcapacity":"19","landmark":"397"},"geometry":{"type":"Point","coordinates":[-87.594747,41.799568]}},{"type":"Feature","properties":{"station_id":"323","name":"Sheridan Rd & Lawrence Ave","latitude":"41.969517","longitude":"-87.654691","dpcapacity":"15","landmark":"384"},"geometry":{"type":"Point","coordinates":[-87.654691,41.969517]}},{"type":"Feature","properties":{"station_id":"324","name":"Stockton Dr & Wrightwood Ave","latitude":"41.93132","longitude":"-87.638742","dpcapacity":"15","landmark":"276"},"geometry":{"type":"Point","coordinates":[-87.638742,41.93132]}},{"type":"Feature","properties":{"station_id":"325","name":"Clark St & Winnemac Ave","latitude":"41.973385","longitude":"-87.668365","dpcapacity":"19","landmark":"392"},"geometry":{"type":"Point","coordinates":[-87.668365,41.973385]}},{"type":"Feature","properties":{"station_id":"326","name":"Clark St & Leland Ave","latitude":"41.967096","longitude":"-87.667429","dpcapacity":"11","landmark":"239"},"geometry":{"type":"Point","coordinates":[-87.667429,41.967096]}},{"type":"Feature","properties":{"station_id":"327","name":"Sheffield Ave & Webster Ave","latitude":"41.921687","longitude":"-87.653714","dpcapacity":"19","landmark":"188"},"geometry":{"type":"Point","coordinates":[-87.653714,41.921687]}},{"type":"Feature","properties":{"station_id":"328","name":"Ellis Ave & 58th St","latitude":"41.788746","longitude":"-87.601334","dpcapacity":"15","landmark":"365"},"geometry":{"type":"Point","coordinates":[-87.601334,41.788746]}},{"type":"Feature","properties":{"station_id":"329","name":"Lake Shore Dr & Diversey Pkwy","latitude":"41.932684","longitude":"-87.63625","dpcapacity":"15","landmark":"347"},"geometry":{"type":"Point","coordinates":[-87.63625,41.932684]}},{"type":"Feature","properties":{"station_id":"330","name":"Lincoln Ave & Addison St","latitude":"41.946176","longitude":"-87.673308","dpcapacity":"19","landmark":"77"},"geometry":{"type":"Point","coordinates":[-87.673308,41.946176]}},{"type":"Feature","properties":{"station_id":"331","name":"Halsted St & Blackhawk St","latitude":"41.90854","longitude":"-87.648568","dpcapacity":"19","landmark":"176"},"geometry":{"type":"Point","coordinates":[-87.648568,41.90854]}},{"type":"Feature","properties":{"station_id":"332","name":"Halsted St & Diversey Pkwy","latitude":"41.933341","longitude":"-87.648747","dpcapacity":"15","landmark":"208"},"geometry":{"type":"Point","coordinates":[-87.648747,41.933341]}},{"type":"Feature","properties":{"station_id":"333","name":"Ashland Ave & Blackhawk St","latitude":"41.907066","longitude":"-87.667252","dpcapacity":"15","landmark":"224"},"geometry":{"type":"Point","coordinates":[-87.667252,41.907066]}},{"type":"Feature","properties":{"station_id":"334","name":"Lake Shore Dr & Belmont Ave","latitude":"41.940775","longitude":"-87.639192","dpcapacity":"19","landmark":"233"},"geometry":{"type":"Point","coordinates":[-87.639192,41.940775]}},{"type":"Feature","properties":{"station_id":"335","name":"Calumet Ave & 35th St","latitude":"41.831379","longitude":"-87.618034","dpcapacity":"15","landmark":"345"},"geometry":{"type":"Point","coordinates":[-87.618034,41.831379]}},{"type":"Feature","properties":{"station_id":"336","name":"Cottage Grove Ave & 47th St","latitude":"41.809855","longitude":"-87.606755","dpcapacity":"15","landmark":"422"},"geometry":{"type":"Point","coordinates":[-87.606755,41.809855]}},{"type":"Feature","properties":{"station_id":"337","name":"Clark St & Chicago Ave","latitude":"41.896544","longitude":"-87.630931","dpcapacity":"19","landmark":"303"},"geometry":{"type":"Point","coordinates":[-87.630931,41.896544]}},{"type":"Feature","properties":{"station_id":"338","name":"Calumet Ave & 18th St","latitude":"41.857611","longitude":"-87.619407","dpcapacity":"15","landmark":"102"},"geometry":{"type":"Point","coordinates":[-87.619407,41.857611]}},{"type":"Feature","properties":{"station_id":"339","name":"Emerald Ave & 31st St","latitude":"41.838198","longitude":"-87.645143","dpcapacity":"11","landmark":"404"},"geometry":{"type":"Point","coordinates":[-87.645143,41.838198]}},{"type":"Feature","properties":{"station_id":"340","name":"Clark St & Wrightwood Ave","latitude":"41.929546","longitude":"-87.643118","dpcapacity":"15","landmark":"209"},"geometry":{"type":"Point","coordinates":[-87.643118,41.929546]}},{"type":"Feature","properties":{"station_id":"341","name":"Adler Planetarium","latitude":"41.866095","longitude":"-87.607267","dpcapacity":"19","landmark":"431"},"geometry":{"type":"Point","coordinates":[-87.607267,41.866095]}},{"type":"Feature","properties":{"station_id":"342","name":"Wolcott Ave & Polk St","latitude":"41.871262","longitude":"-87.673688","dpcapacity":"15","landmark":"284"},"geometry":{"type":"Point","coordinates":[-87.673688,41.871262]}},{"type":"Feature","properties":{"station_id":"343","name":"Racine Ave & Wrightwood Ave","latitude":"41.928887","longitude":"-87.658971","dpcapacity":"15","landmark":"297"},"geometry":{"type":"Point","coordinates":[-87.658971,41.928887]}},{"type":"Feature","properties":{"station_id":"344","name":"Ravenswood Ave & Lawrence Ave","latitude":"41.96909","longitude":"-87.674237","dpcapacity":"19","landmark":"26"},"geometry":{"type":"Point","coordinates":[-87.674237,41.96909]}},{"type":"Feature","properties":{"station_id":"345","name":"Lake Park Ave & 56th St","latitude":"41.793242","longitude":"-87.587782","dpcapacity":"19","landmark":"119"},"geometry":{"type":"Point","coordinates":[-87.587782,41.793242]}},{"type":"Feature","properties":{"station_id":"346","name":"Ada St & Washington Blvd","latitude":"41.88283","longitude":"-87.661206","dpcapacity":"15","landmark":"353"},"geometry":{"type":"Point","coordinates":[-87.661206,41.88283]}},{"type":"Feature","properties":{"station_id":"347","name":"Ashland Ave & Grace St","latitude":"41.950687","longitude":"-87.6687","dpcapacity":"15","landmark":"319"},"geometry":{"type":"Point","coordinates":[-87.6687,41.950687]}},{"type":"Feature","properties":{"station_id":"348","name":"California Ave & 21st St","latitude":"41.854016","longitude":"-87.695445","dpcapacity":"15","landmark":"96"},"geometry":{"type":"Point","coordinates":[-87.695445,41.854016]}},{"type":"Feature","properties":{"station_id":"349","name":"Halsted St & Wrightwood Ave","latitude":"41.929143","longitude":"-87.649077","dpcapacity":"15","landmark":"210"},"geometry":{"type":"Point","coordinates":[-87.649077,41.929143]}},{"type":"Feature","properties":{"station_id":"350","name":"Ashland Ave & Chicago Ave","latitude":"41.895966","longitude":"-87.667747","dpcapacity":"15","landmark":"247"},"geometry":{"type":"Point","coordinates":[-87.667747,41.895966]}},{"type":"Feature","properties":{"station_id":"351","name":"Cottage Grove Ave & 51st St","latitude":"41.803038","longitude":"-87.606615","dpcapacity":"15","landmark":"440"},"geometry":{"type":"Point","coordinates":[-87.606615,41.803038]}},{"type":"Feature","properties":{"station_id":"352","name":"Jeffery Blvd & 67th St","latitude":"41.77351755","longitude":"-87.57714283","dpcapacity":"15","landmark":"493"},"geometry":{"type":"Point","coordinates":[-87.57714283,41.77351755]}},{"type":"Feature","properties":{"station_id":"353","name":"Clark St & Touhy Ave","latitude":"42.01256012","longitude":"-87.67436712","dpcapacity":"15","landmark":"561"},"geometry":{"type":"Point","coordinates":[-87.67436712,42.01256012]}},{"type":"Feature","properties":{"station_id":"354","name":"Sheridan Rd & Greenleaf Ave","latitude":"42.01058656","longitude":"-87.66241209","dpcapacity":"15","landmark":"562"},"geometry":{"type":"Point","coordinates":[-87.66241209,42.01058656]}},{"type":"Feature","properties":{"station_id":"355","name":"South Shore Dr & 67th St","latitude":"41.77366885","longitude":"-87.56733865","dpcapacity":"19","landmark":"494"},"geometry":{"type":"Point","coordinates":[-87.56733865,41.77366885]}},{"type":"Feature","properties":{"station_id":"356","name":"Stony Island Ave & 71st St","latitude":"41.76649294","longitude":"-87.58646088","dpcapacity":"11","landmark":"495"},"geometry":{"type":"Point","coordinates":[-87.58646088,41.76649294]}},{"type":"Feature","properties":{"station_id":"359","name":"Larrabee St & Division St","latitude":"41.90348607","longitude":"-87.64335349","dpcapacity":"19","landmark":"524"},"geometry":{"type":"Point","coordinates":[-87.64335349,41.90348607]}},{"type":"Feature","properties":{"station_id":"364","name":"Larrabee St & Oak St","latitude":"41.90021949","longitude":"-87.64298547","dpcapacity":"15","landmark":"527"},"geometry":{"type":"Point","coordinates":[-87.64298547,41.90021949]}},{"type":"Feature","properties":{"station_id":"365","name":"Halsted St & North Branch St","latitude":"41.89936844","longitude":"-87.64847988","dpcapacity":"15","landmark":"528"},"geometry":{"type":"Point","coordinates":[-87.64847988,41.89936844]}},{"type":"Feature","properties":{"station_id":"366","name":"Loomis St & Archer Ave","latitude":"41.84163254","longitude":"-87.65743495","dpcapacity":"15","landmark":"441"},"geometry":{"type":"Point","coordinates":[-87.65743495,41.84163254]}},{"type":"Feature","properties":{"station_id":"367","name":"Racine Ave & 35th St","latitude":"41.83069611","longitude":"-87.65597591","dpcapacity":"15","landmark":"446"},"geometry":{"type":"Point","coordinates":[-87.65597591,41.83069611]}},{"type":"Feature","properties":{"station_id":"368","name":"Ashland Ave & Archer Ave","latitude":"41.83920868","longitude":"-87.66560986","dpcapacity":"19","landmark":"442"},"geometry":{"type":"Point","coordinates":[-87.66560986,41.83920868]}},{"type":"Feature","properties":{"station_id":"369","name":"Wood St & 35th St","latitude":"41.83010465","longitude":"-87.67029831","dpcapacity":"11","landmark":"694"},"geometry":{"type":"Point","coordinates":[-87.67029831,41.83010465]}},{"type":"Feature","properties":{"station_id":"370","name":"Calumet Ave & 21st St","latitude":"41.85418425","longitude":"-87.61915374","dpcapacity":"15","landmark":"546"},"geometry":{"type":"Point","coordinates":[-87.61915374,41.85418425]}},{"type":"Feature","properties":{"station_id":"372","name":"California Ave & Augusta Blvd","latitude":"41.89935755","longitude":"-87.69643947","dpcapacity":"19","landmark":"660"},"geometry":{"type":"Point","coordinates":[-87.69643947,41.89935755]}},{"type":"Feature","properties":{"station_id":"373","name":"Kedzie Ave & Chicago Ave","latitude":"41.8954653","longitude":"-87.70612788","dpcapacity":"15","landmark":"661"},"geometry":{"type":"Point","coordinates":[-87.70612788,41.8954653]}},{"type":"Feature","properties":{"station_id":"374","name":"Western Ave & Walton St","latitude":"41.89841769","longitude":"-87.68659602","dpcapacity":"15","landmark":"662"},"geometry":{"type":"Point","coordinates":[-87.68659602,41.89841769]}},{"type":"Feature","properties":{"station_id":"375","name":"Sacramento Blvd & Franklin Blvd","latitude":"41.889727","longitude":"-87.70103","dpcapacity":"15","landmark":"663"},"geometry":{"type":"Point","coordinates":[-87.70103,41.889727]}},{"type":"Feature","properties":{"station_id":"376","name":"Artesian Ave & Hubbard St","latitude":"41.88949182","longitude":"-87.68821936","dpcapacity":"35","landmark":"664"},"geometry":{"type":"Point","coordinates":[-87.68821936,41.88949182]}},{"type":"Feature","properties":{"station_id":"377","name":"Kedzie Ave & Lake St","latitude":"41.88460329","longitude":"-87.70630374","dpcapacity":"19","landmark":"665"},"geometry":{"type":"Point","coordinates":[-87.70630374,41.88460329]}},{"type":"Feature","properties":{"station_id":"378","name":"California Ave & Lake St","latitude":"41.88445396","longitude":"-87.69629814","dpcapacity":"15","landmark":"666"},"geometry":{"type":"Point","coordinates":[-87.69629814,41.88445396]}},{"type":"Feature","properties":{"station_id":"381","name":"Western Ave & Monroe St","latitude":"41.87978771","longitude":"-87.68611281","dpcapacity":"15","landmark":"667"},"geometry":{"type":"Point","coordinates":[-87.68611281,41.87978771]}},{"type":"Feature","properties":{"station_id":"382","name":"Western Ave & Congress Pkwy","latitude":"41.87474885","longitude":"-87.68644528","dpcapacity":"19","landmark":"668"},"geometry":{"type":"Point","coordinates":[-87.68644528,41.87474885]}},{"type":"Feature","properties":{"station_id":"383","name":"Ashland Ave & Harrison St","latitude":"41.87429061","longitude":"-87.66724564","dpcapacity":"23","landmark":"669"},"geometry":{"type":"Point","coordinates":[-87.66724564,41.87429061]}},{"type":"Feature","properties":{"station_id":"384","name":"Halsted St & 51st St","latitude":"41.80183164","longitude":"-87.6452139","dpcapacity":"15","landmark":"591"},"geometry":{"type":"Point","coordinates":[-87.6452139,41.80183164]}},{"type":"Feature","properties":{"station_id":"385","name":"Princeton Ave & Garfield Blvd","latitude":"41.794982","longitude":"-87.633124","dpcapacity":"15","landmark":"592"},"geometry":{"type":"Point","coordinates":[-87.633124,41.794982]}},{"type":"Feature","properties":{"station_id":"386","name":"Halsted St & 56th St","latitude":"41.79292965","longitude":"-87.64499006","dpcapacity":"15","landmark":"593"},"geometry":{"type":"Point","coordinates":[-87.64499006,41.79292965]}},{"type":"Feature","properties":{"station_id":"388","name":"Halsted St & 63rd St","latitude":"41.77938114","longitude":"-87.64462081","dpcapacity":"15","landmark":"595"},"geometry":{"type":"Point","coordinates":[-87.64462081,41.77938114]}},{"type":"Feature","properties":{"station_id":"390","name":"Wentworth Ave & 63rd St","latitude":"41.78007963","longitude":"-87.62974631","dpcapacity":"15","landmark":"596"},"geometry":{"type":"Point","coordinates":[-87.62974631,41.78007963]}},{"type":"Feature","properties":{"station_id":"391","name":"Halsted St & 69th St","latitude":"41.76906172","longitude":"-87.64461358","dpcapacity":"15","landmark":"597"},"geometry":{"type":"Point","coordinates":[-87.64461358,41.76906172]}},{"type":"Feature","properties":{"station_id":"392","name":"Perry Ave & 69th St","latitude":"41.76929309","longitude":"-87.62819593","dpcapacity":"15","landmark":"598"},"geometry":{"type":"Point","coordinates":[-87.62819593,41.76929309]}},{"type":"Feature","properties":{"station_id":"393","name":"Calumet Ave & 71st St","latitude":"41.76550801","longitude":"-87.61691793","dpcapacity":"15","landmark":"599"},"geometry":{"type":"Point","coordinates":[-87.61691793,41.76550801]}},{"type":"Feature","properties":{"station_id":"395","name":"Jeffery Blvd & 76th St","latitude":"41.75712007","longitude":"-87.57583936","dpcapacity":"15","landmark":"499"},"geometry":{"type":"Point","coordinates":[-87.57583936,41.75712007]}},{"type":"Feature","properties":{"station_id":"396","name":"Yates Blvd & 75th St","latitude":"41.758768","longitude":"-87.56644","dpcapacity":"11","landmark":"500"},"geometry":{"type":"Point","coordinates":[-87.56644,41.758768]}},{"type":"Feature","properties":{"station_id":"397","name":"Saginaw Ave & Exchange Ave","latitude":"41.75874584","longitude":"-87.56011478","dpcapacity":"11","landmark":"501"},"geometry":{"type":"Point","coordinates":[-87.56011478,41.75874584]}},{"type":"Feature","properties":{"station_id":"398","name":"Rainbow Beach","latitude":"41.75787145","longitude":"-87.54938625","dpcapacity":"19","landmark":"502"},"geometry":{"type":"Point","coordinates":[-87.54938625,41.75787145]}},{"type":"Feature","properties":{"station_id":"399","name":"South Shore Dr & 74th St","latitude":"41.76218896","longitude":"-87.55927465","dpcapacity":"11","landmark":"506"},"geometry":{"type":"Point","coordinates":[-87.55927465,41.76218896]}},{"type":"Feature","properties":{"station_id":"400","name":"Cottage Grove Ave & 71st St","latitude":"41.76571904","longitude":"-87.60495971","dpcapacity":"19","landmark":"507"},"geometry":{"type":"Point","coordinates":[-87.60495971,41.76571904]}},{"type":"Feature","properties":{"station_id":"401","name":"Shields Ave & 28th Pl","latitude":"41.842733","longitude":"-87.635491","dpcapacity":"11","landmark":"443"},"geometry":{"type":"Point","coordinates":[-87.635491,41.842733]}},{"type":"Feature","properties":{"station_id":"402","name":"Princeton Ave & 31st St","latitude":"41.83802029","longitude":"-87.63400933","dpcapacity":"15","landmark":"444"},"geometry":{"type":"Point","coordinates":[-87.63400933,41.83802029]}},{"type":"Feature","properties":{"station_id":"403","name":"Wentworth Ave & 33rd St","latitude":"41.83452989","longitude":"-87.63182298","dpcapacity":"15","landmark":"445"},"geometry":{"type":"Point","coordinates":[-87.63182298,41.83452989]}},{"type":"Feature","properties":{"station_id":"406","name":"Lake Park Ave & 35th St","latitude":"41.83127424","longitude":"-87.60879919","dpcapacity":"19","landmark":"448"},"geometry":{"type":"Point","coordinates":[-87.60879919,41.83127424]}},{"type":"Feature","properties":{"station_id":"407","name":"State St & Pershing Rd","latitude":"41.82301524","longitude":"-87.62656802","dpcapacity":"19","landmark":"449"},"geometry":{"type":"Point","coordinates":[-87.62656802,41.82301524]}},{"type":"Feature","properties":{"station_id":"408","name":"Union Ave & 42nd St","latitude":"41.81763809","longitude":"-87.64356503","dpcapacity":"15","landmark":"450"},"geometry":{"type":"Point","coordinates":[-87.64356503,41.81763809]}},{"type":"Feature","properties":{"station_id":"409","name":"Shields Ave & 43rd St","latitude":"41.81620768","longitude":"-87.63481935","dpcapacity":"15","landmark":"451"},"geometry":{"type":"Point","coordinates":[-87.63481935,41.81620768]}},{"type":"Feature","properties":{"station_id":"410","name":"Prairie Ave & 43rd St","latitude":"41.81665889","longitude":"-87.61941246","dpcapacity":"19","landmark":"452"},"geometry":{"type":"Point","coordinates":[-87.61941246,41.81665889]}},{"type":"Feature","properties":{"station_id":"411","name":"Halsted St & 47th Pl","latitude":"41.80813391","longitude":"-87.64561655","dpcapacity":"11","landmark":"453"},"geometry":{"type":"Point","coordinates":[-87.64561655,41.80813391]}},{"type":"Feature","properties":{"station_id":"412","name":"Princeton Ave & 47th St","latitude":"41.80931771","longitude":"-87.63344929","dpcapacity":"19","landmark":"454"},"geometry":{"type":"Point","coordinates":[-87.63344929,41.80931771]}},{"type":"Feature","properties":{"station_id":"413","name":"Woodlawn Ave & Lake Park Ave","latitude":"41.81409271","longitude":"-87.59700515","dpcapacity":"15","landmark":"455"},"geometry":{"type":"Point","coordinates":[-87.59700515,41.81409271]}},{"type":"Feature","properties":{"station_id":"414","name":"Princeton Ave & China Pl","latitude":"41.85366109","longitude":"-87.63513546","dpcapacity":"15","landmark":"456"},"geometry":{"type":"Point","coordinates":[-87.63513546,41.85366109]}},{"type":"Feature","properties":{"station_id":"415","name":"Calumet Ave & 51st St","latitude":"41.80229465","longitude":"-87.61805358","dpcapacity":"19","landmark":"470"},"geometry":{"type":"Point","coordinates":[-87.61805358,41.80229465]}},{"type":"Feature","properties":{"station_id":"416","name":"Dorchester Ave & 49th St","latitude":"41.805772","longitude":"-87.592464","dpcapacity":"15","landmark":"471"},"geometry":{"type":"Point","coordinates":[-87.592464,41.805772]}},{"type":"Feature","properties":{"station_id":"417","name":"Cornell Ave & Hyde Park B lvd","latitude":"41.802406","longitude":"-87.586924","dpcapacity":"19","landmark":"472"},"geometry":{"type":"Point","coordinates":[-87.586924,41.802406]}},{"type":"Feature","properties":{"station_id":"418","name":"Ellis Ave & 53rd St","latitude":"41.79933626","longitude":"-87.60095811","dpcapacity":"11","landmark":"473"},"geometry":{"type":"Point","coordinates":[-87.60095811,41.79933626]}},{"type":"Feature","properties":{"station_id":"419","name":"Lake Park Ave & 53rd St","latitude":"41.79949429","longitude":"-87.5864499","dpcapacity":"15","landmark":"474"},"geometry":{"type":"Point","coordinates":[-87.5864499,41.79949429]}},{"type":"Feature","properties":{"station_id":"420","name":"Ellis Ave & 55th St","latitude":"41.79430062","longitude":"-87.60144977","dpcapacity":"19","landmark":"475"},"geometry":{"type":"Point","coordinates":[-87.60144977,41.79430062]}},{"type":"Feature","properties":{"station_id":"421","name":"MLK Jr Dr & 56th St","latitude":"41.79342946","longitude":"-87.61585326","dpcapacity":"15","landmark":"476"},"geometry":{"type":"Point","coordinates":[-87.61585326,41.79342946]}},{"type":"Feature","properties":{"station_id":"422","name":"DuSable Museum","latitude":"41.79156801","longitude":"-87.60785218","dpcapacity":"14","landmark":"477"},"geometry":{"type":"Point","coordinates":[-87.60785218,41.79156801]}},{"type":"Feature","properties":{"station_id":"423","name":"University Ave & 57th St","latitude":"41.79147573","longitude":"-87.59941433","dpcapacity":"19","landmark":"478"},"geometry":{"type":"Point","coordinates":[-87.59941433,41.79147573]}},{"type":"Feature","properties":{"station_id":"424","name":"Museum of Science and Industry","latitude":"41.79172821","longitude":"-87.58394501","dpcapacity":"27","landmark":"479"},"geometry":{"type":"Point","coordinates":[-87.58394501,41.79172821]}},{"type":"Feature","properties":{"station_id":"425","name":"Harper Ave & 59th St","latitude":"41.78794281","longitude":"-87.58831517","dpcapacity":"15","landmark":"480"},"geometry":{"type":"Point","coordinates":[-87.58831517,41.78794281]}},{"type":"Feature","properties":{"station_id":"426","name":"Ellis Ave & 60th St","latitude":"41.78509715","longitude":"-87.60107276","dpcapacity":"19","landmark":"481"},"geometry":{"type":"Point","coordinates":[-87.60107276,41.78509715]}},{"type":"Feature","properties":{"station_id":"427","name":"Cottage Grove Ave & 63rd St","latitude":"41.78059901","longitude":"-87.60611239","dpcapacity":"19","landmark":"482"},"geometry":{"type":"Point","coordinates":[-87.60611239,41.78059901]}},{"type":"Feature","properties":{"station_id":"428","name":"Dorchester Ave & 63rd St","latitude":"41.78040565","longitude":"-87.59141599","dpcapacity":"15","landmark":"484"},"geometry":{"type":"Point","coordinates":[-87.59141599,41.78040565]}},{"type":"Feature","properties":{"station_id":"429","name":"Cottage Grove Ave & 67th St","latitude":"41.77372095","longitude":"-87.60563486","dpcapacity":"15","landmark":"485"},"geometry":{"type":"Point","coordinates":[-87.60563486,41.77372095]}},{"type":"Feature","properties":{"station_id":"430","name":"MLK Jr Dr & 63rd St","latitude":"41.78008064","longitude":"-87.61594286","dpcapacity":"15","landmark":"486"},"geometry":{"type":"Point","coordinates":[-87.61594286,41.78008064]}},{"type":"Feature","properties":{"station_id":"431","name":"Eberhart Ave & 61st St","latitude":"41.78414169","longitude":"-87.61330783","dpcapacity":"15","landmark":"487"},"geometry":{"type":"Point","coordinates":[-87.61330783,41.78414169]}},{"type":"Feature","properties":{"station_id":"432","name":"Clark St & Lunt Ave","latitude":"42.00906913","longitude":"-87.67371139","dpcapacity":"15","landmark":"563"},"geometry":{"type":"Point","coordinates":[-87.67371139,42.00906913]}},{"type":"Feature","properties":{"station_id":"433","name":"Kedzie Ave & Harrison St","latitude":"41.87359967","longitude":"-87.70487075","dpcapacity":"15","landmark":"680"},"geometry":{"type":"Point","coordinates":[-87.70487075,41.87359967]}},{"type":"Feature","properties":{"station_id":"434","name":"Ogden Ave & Roosevelt Rd","latitude":"41.86650148","longitude":"-87.68469707","dpcapacity":"19","landmark":"681"},"geometry":{"type":"Point","coordinates":[-87.68469707,41.86650148]}},{"type":"Feature","properties":{"station_id":"435","name":"Kedzie Ave & Roosevelt Rd","latitude":"41.86649278","longitude":"-87.70649618","dpcapacity":"15","landmark":"682"},"geometry":{"type":"Point","coordinates":[-87.70649618,41.86649278]}},{"type":"Feature","properties":{"station_id":"436","name":"California Ave & Roosevelt Rd","latitude":"41.86662911","longitude":"-87.69559599","dpcapacity":"15","landmark":"683"},"geometry":{"type":"Point","coordinates":[-87.69559599,41.86662911]}},{"type":"Feature","properties":{"station_id":"437","name":"Washtenaw Ave & 15th St","latitude":"41.86148","longitude":"-87.693374","dpcapacity":"19","landmark":"684"},"geometry":{"type":"Point","coordinates":[-87.693374,41.86148]}},{"type":"Feature","properties":{"station_id":"438","name":"Central Park Ave & Ogden Ave","latitude":"41.85420431","longitude":"-87.71540584","dpcapacity":"19","landmark":"685"},"geometry":{"type":"Point","coordinates":[-87.71540584,41.85420431]}},{"type":"Feature","properties":{"station_id":"439","name":"Kedzie Ave & 21st St","latitude":"41.85353363","longitude":"-87.70507303","dpcapacity":"15","landmark":"686"},"geometry":{"type":"Point","coordinates":[-87.70507303,41.85353363]}},{"type":"Feature","properties":{"station_id":"440","name":"Lawndale Ave & 23rd St","latitude":"41.84988195","longitude":"-87.71700039","dpcapacity":"15","landmark":"687"},"geometry":{"type":"Point","coordinates":[-87.71700039,41.84988195]}},{"type":"Feature","properties":{"station_id":"441","name":"Kedzie Ave & 24th St","latitude":"41.84819094","longitude":"-87.70541375","dpcapacity":"15","landmark":"688"},"geometry":{"type":"Point","coordinates":[-87.70541375,41.84819094]}},{"type":"Feature","properties":{"station_id":"442","name":"California Ave & 23rd Pl","latitude":"41.84910969","longitude":"-87.69513981","dpcapacity":"15","landmark":"689"},"geometry":{"type":"Point","coordinates":[-87.69513981,41.84910969]}},{"type":"Feature","properties":{"station_id":"443","name":"Millard Ave & 26th St","latitude":"41.84456685","longitude":"-87.71591031","dpcapacity":"15","landmark":"690"},"geometry":{"type":"Point","coordinates":[-87.71591031,41.84456685]}},{"type":"Feature","properties":{"station_id":"444","name":"Albany Ave & 26th St","latitude":"41.84447501","longitude":"-87.70201301","dpcapacity":"19","landmark":"691"},"geometry":{"type":"Point","coordinates":[-87.70201301,41.84447501]}},{"type":"Feature","properties":{"station_id":"445","name":"California Ave & 26th St","latitude":"41.84404003","longitude":"-87.69529592","dpcapacity":"19","landmark":"692"},"geometry":{"type":"Point","coordinates":[-87.69529592,41.84404003]}},{"type":"Feature","properties":{"station_id":"446","name":"Western Ave & 28th St","latitude":"41.84151771","longitude":"-87.68513144","dpcapacity":"15","landmark":"693"},"geometry":{"type":"Point","coordinates":[-87.68513144,41.84151771]}},{"type":"Feature","properties":{"station_id":"447","name":"Glenwood Ave & Morse Ave","latitude":"42.00797192","longitude":"-87.66550239","dpcapacity":"15","landmark":"564"},"geometry":{"type":"Point","coordinates":[-87.66550239,42.00797192]}},{"type":"Feature","properties":{"station_id":"448","name":"Warren Park East","latitude":"42.00454962","longitude":"-87.68066615","dpcapacity":"15","landmark":"565"},"geometry":{"type":"Point","coordinates":[-87.68066615,42.00454962]}},{"type":"Feature","properties":{"station_id":"449","name":"Clark St & Columbia Ave","latitude":"42.00445063","longitude":"-87.6724024","dpcapacity":"15","landmark":"566"},"geometry":{"type":"Point","coordinates":[-87.6724024,42.00445063]}},{"type":"Feature","properties":{"station_id":"450","name":"Warren Park West","latitude":"42.00200726","longitude":"-87.68972623","dpcapacity":"15","landmark":"567"},"geometry":{"type":"Point","coordinates":[-87.68972623,42.00200726]}},{"type":"Feature","properties":{"station_id":"451","name":"Sheridan Rd & Loyola Ave","latitude":"42.00104378","longitude":"-87.66119824","dpcapacity":"15","landmark":"568"},"geometry":{"type":"Point","coordinates":[-87.66119824,42.00104378]}},{"type":"Feature","properties":{"station_id":"452","name":"Western Ave & Granville Ave","latitude":"41.99416137","longitude":"-87.68943828","dpcapacity":"15","landmark":"569"},"geometry":{"type":"Point","coordinates":[-87.68943828,41.99416137]}},{"type":"Feature","properties":{"station_id":"453","name":"Clark St & Schreiber Ave","latitude":"41.99925182","longitude":"-87.67137734","dpcapacity":"15","landmark":"570"},"geometry":{"type":"Point","coordinates":[-87.67137734,41.99925182]}},{"type":"Feature","properties":{"station_id":"454","name":"Broadway & Granville Ave","latitude":"41.99477969","longitude":"-87.66028453","dpcapacity":"15","landmark":"571"},"geometry":{"type":"Point","coordinates":[-87.66028453,41.99477969]}},{"type":"Feature","properties":{"station_id":"455","name":"Maplewood Ave & Peterson Ave","latitude":"41.99023603","longitude":"-87.69336964","dpcapacity":"15","landmark":"572"},"geometry":{"type":"Point","coordinates":[-87.69336964,41.99023603]}},{"type":"Feature","properties":{"station_id":"456","name":"2112 W Peterson Ave","latitude":"41.991178","longitude":"-87.683593","dpcapacity":"15","landmark":"573"},"geometry":{"type":"Point","coordinates":[-87.683593,41.991178]}},{"type":"Feature","properties":{"station_id":"457","name":"Clark St & Elmdale Ave","latitude":"41.99089375","longitude":"-87.6695834","dpcapacity":"19","landmark":"574"},"geometry":{"type":"Point","coordinates":[-87.6695834,41.99089375]}},{"type":"Feature","properties":{"station_id":"458","name":"Broadway & Thorndale Ave","latitude":"41.98974251","longitude":"-87.66014062","dpcapacity":"19","landmark":"575"},"geometry":{"type":"Point","coordinates":[-87.66014062,41.98974251]}},{"type":"Feature","properties":{"station_id":"459","name":"Lakefront Trail & Bryn Mawr Ave","latitude":"41.9840367","longitude":"-87.65231047","dpcapacity":"19","landmark":"576"},"geometry":{"type":"Point","coordinates":[-87.65231047,41.9840367]}},{"type":"Feature","properties":{"station_id":"460","name":"Clark St & Bryn Mawr Ave","latitude":"41.98356935","longitude":"-87.66912477","dpcapacity":"15","landmark":"577"},"geometry":{"type":"Point","coordinates":[-87.66912477,41.98356935]}},