{"type":"FeatureCollection","features":[{"type":"Feature","properties":{"station_id":"2","name":"Buckingham Fountain","totalDocks":"38","latitude":"41.87647","longitude":"-87.62034","city":"Chicago","postalCode":"60605","location":""},"geometry":{"type":"Point","coordinates":[-87.62034,41.87647]}},{"type":"Feature","properties":{"station_id":"3","name":"Shedd Aquarium","totalDocks":"55","latitude":"41.86722596","longitude":"-87.61535539","city":"Chicago","postalCode":"","location":""},"geometry":{"type":"Point","coordinates":[-87.61535539,41.86722596]}},{"type":"Feature","properties":{"station_id":"4","name":"Burnham Harbor","totalDocks":"23","latitude":"41.856268","longitude":"-87.613348","city":"Chicago","postalCode":"","location":""},"geometry":{"type":"Point","coordinates":[-87.613348,41.856268]}},{"type":"Feature","properties":{"station_id":"5","name":"State St & Harrison St","totalDocks":"23","latitude":"41.874053","longitude":"-87.627716","city":"Chicago","postalCode":"60605","location":"620 S. State St."},"geometry":{"type":"Point","coordinates":[-87.627716,41.874053]}},{"type":"Feature","properties":{"station_id":"6","name":"Dusable Harbor","totalDocks":"39","latitude":"41.886976","longitude":"-87.612813","city":"Chicago","postalCode":"60601","location":""},"geometry":{"type":"Point","coordinates":[-87.612813,41.886976]}},{"type":"Feature","properties":{"station_id":"7","name":"Field Blvd & South Water St","totalDocks":"19","latitude":"41.88634906","longitude":"-87.61751655","city":"Chicago","postalCode":"60601","location":""},"geometry":{"type":"Point","coordinates":[-87.61751655,41.88634906]}},{"type":"Feature","properties":{"station_id":"9","name":"Leavitt St & Archer Ave","totalDocks":"15","latitude":"41.82879202","longitude":"-87.68060446","city":"Chicago","postalCode":"60609","location":"NA1"},"geometry":{"type":"Point","coordinates":[-87.68060446,41.82879202]}},{"type":"Feature","properties":{"station_id":"11","name":"Jeffery Blvd & 71st St","totalDocks":"11","latitude":"41.76663824","longitude":"-87.57645011","city":"Chicago","postalCode":"60649","location":""},"geometry":{"type":"Point","coordinates":[-87.57645011,41.76663824]}},{"type":"Feature","properties":{"station_id":"12","name":"South Shore Dr & 71st St","totalDocks":"15","latitude":"41.76640946","longitude":"-87.56568757","city":"Chicago","postalCode":"60649","location":"MLSW"},"geometry":{"type":"Point","coordinates":[-87.56568757,41.76640946]}},{"type":"Feature","properties":{"station_id":"13","name":"Wilton Ave & Diversey Pkwy","totalDocks":"35","latitude":"41.932418","longitude":"-87.652705","city":"Chicago","postalCode":"60614","location":"2790 N.Wilton Ave"},"geometry":{"type":"Point","coordinates":[-87.652705,41.932418]}},{"type":"Feature","properties":{"station_id":"14","name":"Morgan St & 18th St","totalDocks":"15","latitude":"41.858086","longitude":"-87.651073","city":"Chicago","postalCode":"60608","location":"962 W. 18th St"},"geometry":{"type":"Point","coordinates":[-87.651073,41.858086]}},{"type":"Feature","properties":{"station_id":"15","name":"Racine Ave & 18th St","totalDocks":"15","latitude":"41.858166","longitude":"-87.656495","city":"Chicago","postalCode":"60608","location":"1726 S Racine Ave"},"geometry":{"type":"Point","coordinates":[-87.656495,41.858166]}},{"type":"Feature","properties":{"station_id":"16","name":"Paulina Ave & North Ave","totalDocks":"15","latitude":"41.910337","longitude":"-87.670072","city":"Chicago","postalCode":"60622","location":"1575 N Paulina Ave"},"geometry":{"type":"Point","coordinates":[-87.670072,41.910337]}},{"type":"Feature","properties":{"station_id":"17","name":"Honore St & Division St","totalDocks":"23","latitude":"41.903119","longitude":"-87.673935","city":"Chicago","postalCode":"60622","location":" W. Divison St"},"geometry":{"type":"Point","coordinates":[-87.673935,41.903119]}},{"type":"Feature","properties":{"station_id":"18","name":"Wacker Dr & Washington St","totalDocks":"19","latitude":"41.883132","longitude":"-87.637321","city":"Chicago","postalCode":"60606","location":""},"geometry":{"type":"Point","coordinates":[-87.637321,41.883132]}},{"type":"Feature","properties":{"station_id":"19","name":"Loomis St & Taylor St (*)","totalDocks":"16","latitude":"41.868968","longitude":"-87.659141","city":"Chicago","postalCode":"60607","location":""},"geometry":{"type":"Point","coordinates":[-87.659141,41.868968]}},{"type":"Feature","properties":{"station_id":"20","name":"Sheffield Ave & Kingsbury St","totalDocks":"15","latitude":"41.910522","longitude":"-87.653106","city":"Chicago","postalCode":"60642","location":""},"geometry":{"type":"Point","coordinates":[-87.653106,41.910522]}},{"type":"Feature","properties":{"station_id":"21","name":"Aberdeen St & Jackson Blvd","totalDocks":"23","latitude":"41.87772613","longitude":"-87.65478743","city":"Chicago","postalCode":"60607","location":"1103 W.Jackson Blvd"},"geometry":{"type":"Point","coordinates":[-87.65478743,41.87772613]}},{"type":"Feature","properties":{"station_id":"22","name":"May St & Taylor St","totalDocks":"15","latitude":"41.8694821","longitude":"-87.6554864","city":"Chicago","postalCode":"60607","location":"1134 W. Taylor St"},"geometry":{"type":"Point","coordinates":[-87.6554864,41.8694821]}},{"type":"Feature","properties":{"station_id":"23","name":"Orleans St & Elm St (*)","totalDocks":"16","latitude":"41.902924","longitude":"-87.637715","city":"Chicago","postalCode":"60610","location":"350 W. Elm st"},"geometry":{"type":"Point","coordinates":[-87.637715,41.902924]}},{"type":"Feature","properties":{"station_id":"24","name":"Fairbanks Ct & Grand Ave","totalDocks":"15","latitude":"41.89186","longitude":"-87.62062","city":"Chicago","postalCode":"60611","location":"240 E.Grand Ave."},"geometry":{"type":"Point","coordinates":[-87.62062,41.89186]}},{"type":"Feature","properties":{"station_id":"25","name":"Michigan Ave & Pearson St","totalDocks":"23","latitude":"41.89766","longitude":"-87.62351","city":"Chicago","postalCode":"60611","location":"150 E.Pearson st"},"geometry":{"type":"Point","coordinates":[-87.62351,41.89766]}},{"type":"Feature","properties":{"station_id":"26","name":"McClurg Ct & Illinois St","totalDocks":"31","latitude":"41.890359","longitude":"-87.617532","city":"Chicago","postalCode":"60611","location":""},"geometry":{"type":"Point","coordinates":[-87.617532,41.890359]}},{"type":"Feature","properties":{"station_id":"27","name":"Larrabee St & North Ave","totalDocks":"19","latitude":"41.91021","longitude":"-87.6435","city":"Chicago","postalCode":"60610","location":"1530 N.Larrabee st"},"geometry":{"type":"Point","coordinates":[-87.6435,41.91021]}},{"type":"Feature","properties":{"station_id":"28","name":"Larrabee St & Menomonee St","totalDocks":"15","latitude":"41.91468","longitude":"-87.64332","city":"Chicago","postalCode":"60614","location":"590 W. Menomonee"},"geometry":{"type":"Point","coordinates":[-87.64332,41.91468]}},{"type":"Feature","properties":{"station_id":"29","name":"Noble St & Milwaukee Ave","totalDocks":"15","latitude":"41.90068","longitude":"-87.6626","city":"Chicago","postalCode":"60642","location":"1016 N. Noble St"},"geometry":{"type":"Point","coordinates":[-87.6626,41.90068]}},{"type":"Feature","properties":{"station_id":"30","name":"Ashland Ave & Augusta Blvd","totalDocks":"15","latitude":"41.899643","longitude":"-87.6677","city":"Chicago","postalCode":"60642","location":"1611 W. Augusta Blvd"},"geometry":{"type":"Point","coordinates":[-87.6677,41.899643]}},{"type":"Feature","properties":{"station_id":"31","name":"Franklin St & Chicago Ave","totalDocks":"23","latitude":"41.896776","longitude":"-87.635633","city":"Chicago","postalCode":"60654","location":"805 N. Franklin St"},"geometry":{"type":"Point","coordinates":[-87.635633,41.896776]}},{"type":"Feature","properties":{"station_id":"32","name":"Racine Ave & Congress Pkwy","totalDocks":"19","latitude":"41.87464","longitude":"-87.65703","city":"Chicago","postalCode":"60607","location":"550 S. Racine"},"geometry":{"type":"Point","coordinates":[-87.65703,41.87464]}},{"type":"Feature","properties":{"station_id":"33","name":"State St & Van Buren St","totalDocks":"27","latitude":"41.877181","longitude":"-87.627844","city":"Chicago","postalCode":"60604","location":"360 S State St"},"geometry":{"type":"Point","coordinates":[-87.627844,41.877181]}},{"type":"Feature","properties":{"station_id":"34","name":"Cannon Dr & Fullerton Ave","totalDocks":"15","latitude":"41.92675599","longitude":"-87.63442878","city":"Chicago","postalCode":"60614","location":"2432 N. Cannon Dr."},"geometry":{"type":"Point","coordinates":[-87.63442878,41.92675599]}},{"type":"Feature","properties":{"station_id":"35","name":"Streeter Dr & Grand Ave","totalDocks":"47","latitude":"41.892278","longitude":"-87.612043","city":"Chicago","postalCode":"60611","location":"Navy Pier"},"geometry":{"type":"Point","coordinates":[-87.612043,41.892278]}},{"type":"Feature","properties":{"station_id":"36","name":"Franklin St & Jackson Blvd","totalDocks":"39","latitude":"41.87770796","longitude":"-87.63532114","city":"Chicago","postalCode":"60606","location":"340 S. Franklin St"},"geometry":{"type":"Point","coordinates":[-87.63532114,41.87770796]}},{"type":"Feature","properties":{"station_id":"37","name":"Dearborn St & Adams St","totalDocks":"19","latitude":"41.87935636","longitude":"-87.62979104","city":"Chicago","postalCode":"60603","location":"59 W. Adams St "},"geometry":{"type":"Point","coordinates":[-87.62979104,41.87935636]}},{"type":"Feature","properties":{"station_id":"38","name":"Clark St & Lake St","totalDocks":"27","latitude":"41.88602083","longitude":"-87.63087606","city":"Chicago","postalCode":"60601","location":""},"geometry":{"type":"Point","coordinates":[-87.63087606,41.88602083]}},{"type":"Feature","properties":{"station_id":"39","name":"Wabash Ave & Adams St","totalDocks":"23","latitude":"41.87947235","longitude":"-87.62568861","city":"Chicago","postalCode":"60603","location":""},"geometry":{"type":"Point","coordinates":[-87.62568861,41.87947235]}},{"type":"Feature","properties":{"station_id":"40","name":"LaSalle St & Adams St","totalDocks":"15","latitude":"41.87934437","longitude":"-87.63198522","city":"Chicago","postalCode":"60603","location":""},"geometry":{"type":"Point","coordinates":[-87.63198522,41.87934437]}},{"type":"Feature","properties":{"station_id":"41","name":"Federal St & Polk St","totalDocks":"19","latitude":"41.87207763","longitude":"-87.62954377","city":"Chicago","postalCode":"60605","location":""},"geometry":{"type":"Point","coordinates":[-87.62954377,41.87207763]}},{"type":"Feature","properties":{"station_id":"42","name":"Wabash Ave & Cermak Rd","totalDocks":"11","latitude":"41.852619","longitude":"-87.626488","city":"Chicago","postalCode":"60616","location":"13 E Cermak Rd"},"geometry":{"type":"Point","coordinates":[-87.626488,41.852619]}},{"type":"Feature","properties":{"station_id":"43","name":"Michigan Ave & Washington St","totalDocks":"43","latitude":"41.88389277","longitude":"-87.62464914","city":"Chicago","postalCode":"60602","location":"120 N Michigan"},"geometry":{"type":"Point","coordinates":[-87.62464914,41.88389277]}},{"type":"Feature","properties":{"station_id":"44","name":"State St & Randolph St","totalDocks":"27","latitude":"41.8847302","longitude":"-87.62773357","city":"Chicago","postalCode":"60601","location":""},"geometry":{"type":"Point","coordinates":[-87.62773357,41.8847302]}},{"type":"Feature","properties":{"station_id":"45","name":"Michigan Ave & Ida B Wells Dr","totalDocks":"15","latitude":"41.876243","longitude":"-87.624426","city":"Chicago","postalCode":"60605","location":"420 w. Michigan"},"geometry":{"type":"Point","coordinates":[-87.624426,41.876243]}},{"type":"Feature","properties":{"station_id":"46","name":"Wells St & Walton St","totalDocks":"19","latitude":"41.89993001","longitude":"-87.63443007","city":"Chicago","postalCode":"60610","location":"932 N Wells St"},"geometry":{"type":"Point","coordinates":[-87.63443007,41.89993001]}},{"type":"Feature","properties":{"station_id":"47","name":"State St & Kinzie St","totalDocks":"31","latitude":"41.889187","longitude":"-87.627754","city":"Chicago","postalCode":"60654","location":"5 E Kinzie St"},"geometry":{"type":"Point","coordinates":[-87.627754,41.889187]}},{"type":"Feature","properties":{"station_id":"48","name":"Larrabee St & Kingsbury St","totalDocks":"43","latitude":"41.897764","longitude":"-87.642884","city":"Chicago","postalCode":"60610","location":"840 N Larrabee St"},"geometry":{"type":"Point","coordinates":[-87.642884,41.897764]}},{"type":"Feature","properties":{"station_id":"49","name":"Dearborn St & Monroe St","totalDocks":"39","latitude":"41.88131982","longitude":"-87.62952092","city":"Chicago","postalCode":"60603","location":"80 S Dearborn St"},"geometry":{"type":"Point","coordinates":[-87.62952092,41.88131982]}},{"type":"Feature","properties":{"station_id":"50","name":"Clark St & Ida B Wells Dr","totalDocks":"35","latitude":"41.87593267","longitude":"-87.63058454","city":"Chicago","postalCode":"60605","location":""},"geometry":{"type":"Point","coordinates":[-87.63058454,41.87593267]}},{"type":"Feature","properties":{"station_id":"51","name":"Clark St & Randolph St","totalDocks":"39","latitude":"41.88457623","longitude":"-87.63188991","city":"Chicago","postalCode":"60601","location":"120 W. Randolph St."},"geometry":{"type":"Point","coordinates":[-87.63188991,41.88457623]}},{"type":"Feature","properties":{"station_id":"52","name":"Michigan Ave & Lake St","totalDocks":"35","latitude":"41.886024","longitude":"-87.624117","city":"Chicago","postalCode":"60601","location":"203 N Michigan Ave"},"geometry":{"type":"Point","coordinates":[-87.624117,41.886024]}},{"type":"Feature","properties":{"station_id":"53","name":"Wells St & Huron St","totalDocks":"27","latitude":"41.894722","longitude":"-87.634362","city":"Chicago","postalCode":"60654","location":""},"geometry":{"type":"Point","coordinates":[-87.634362,41.894722]}},{"type":"Feature","properties":{"station_id":"54","name":"Ogden Ave & Chicago Ave","totalDocks":"19","latitude":"41.89636246","longitude":"-87.65406127","city":"Chicago","postalCode":"60642","location":"1040 W. Chicago Ave."},"geometry":{"type":"Point","coordinates":[-87.65406127,41.89636246]}},{"type":"Feature","properties":{"station_id":"55","name":"Halsted St & Roosevelt Rd","totalDocks":"23","latitude":"41.867324","longitude":"-87.648625","city":"Chicago","postalCode":"60608","location":"850 W Roosevelt Rd"},"geometry":{"type":"Point","coordinates":[-87.648625,41.867324]}},{"type":"Feature","properties":{"station_id":"56","name":"Desplaines St & Kinzie St","totalDocks":"27","latitude":"41.88871604","longitude":"-87.64444785","city":"Chicago","postalCode":"60661","location":"368 N. Desplaines St."},"geometry":{"type":"Point","coordinates":[-87.64444785,41.88871604]}},{"type":"Feature","properties":{"station_id":"57","name":"Clinton St & Roosevelt Rd","totalDocks":"15","latitude":"41.86711778","longitude":"-87.64108796","city":"Chicago","postalCode":"60607","location":"559 W Roosevelt Rd"},"geometry":{"type":"Point","coordinates":[-87.64108796,41.86711778]}},{"type":"Feature","properties":{"station_id":"58","name":"Marshfield Ave & Cortland St","totalDocks":"23","latitude":"41.916017","longitude":"-87.668879","city":"Chicago","postalCode":"60622","location":""},"geometry":{"type":"Point","coordinates":[-87.668879,41.916017]}},{"type":"Feature","properties":{"station_id":"59","name":"Wabash Ave & Roosevelt Rd","totalDocks":"23","latitude":"41.867227","longitude":"-87.625961","city":"Chicago","postalCode":"60605","location":"1210 S Wabash Ave"},"geometry":{"type":"Point","coordinates":[-87.625961,41.867227]}},{"type":"Feature","properties":{"station_id":"60","name":"Dayton St & North Ave","totalDocks":"19","latitude":"41.91057803","longitude":"-87.64942193","city":"Chicago","postalCode":"60642","location":"1575 N Dayton St"},"geometry":{"type":"Point","coordinates":[-87.64942193,41.91057803]}},{"type":"Feature","properties":{"station_id":"61","name":"Wood St & Milwaukee Ave","totalDocks":"19","latitude":"41.907655","longitude":"-87.672552","city":"Chicago","postalCode":"60622","location":"1416 N Wood St"},"geometry":{"type":"Point","coordinates":[-87.672552,41.907655]}},{"type":"Feature","properties":{"station_id":"62","name":"McCormick Place","totalDocks":"27","latitude":"41.85137517","longitude":"-87.61883465","city":"Chicago","postalCode":"60616","location":"2253 S Dr Martin Luther King Jr Dr"},"geometry":{"type":"Point","coordinates":[-87.61883465,41.85137517]}},{"type":"Feature","properties":{"station_id":"66","name":"Clinton St & Lake St","totalDocks":"23","latitude":"41.885637","longitude":"-87.641823","city":"Chicago","postalCode":"60661","location":""},"geometry":{"type":"Point","coordinates":[-87.641823,41.885637]}},{"type":"Feature","properties":{"station_id":"67","name":"Sheffield Ave & Fullerton Ave","totalDocks":"27","latitude":"41.92560188","longitude":"-87.65370804","city":"Chicago","postalCode":"60614","location":"2410 N Sheffield Ave"},"geometry":{"type":"Point","coordinates":[-87.65370804,41.92560188]}},{"type":"Feature","properties":{"station_id":"68","name":"Clinton St & Tilden St","totalDocks":"23","latitude":"41.875885","longitude":"-87.640795","city":"Chicago","postalCode":"60607","location":"520 W Tilden St"},"geometry":{"type":"Point","coordinates":[-87.640795,41.875885]}},{"type":"Feature","properties":{"station_id":"69","name":"Damen Ave & Pierce Ave","totalDocks":"23","latitude":"41.90939601","longitude":"-87.67769193","city":"Chicago","postalCode":"60622","location":"2002 W Pierce Ave"},"geometry":{"type":"Point","coordinates":[-87.67769193,41.90939601]}},{"type":"Feature","properties":{"station_id":"71","name":"Morgan St & Lake St","totalDocks":"23","latitude":"41.88548331","longitude":"-87.65230486","city":"Chicago","postalCode":"60607","location":"1003 W. Lake St."},"geometry":{"type":"Point","coordinates":[-87.65230486,41.88548331]}},{"type":"Feature","properties":{"station_id":"72","name":"Wabash Ave & 16th St","totalDocks":"39","latitude":"41.860384","longitude":"-87.625813","city":"Chicago","postalCode":"60605","location":"1590 S Wabash Ave"},"geometry":{"type":"Point","coordinates":[-87.625813,41.860384]}},{"type":"Feature","properties":{"station_id":"73","name":"Jefferson St & Monroe St","totalDocks":"19","latitude":"41.880422","longitude":"-87.642746","city":"Chicago","postalCode":"60661","location":"207 S Jefferson St"},"geometry":{"type":"Point","coordinates":[-87.642746,41.880422]}},{"type":"Feature","properties":{"station_id":"74","name":"Kingsbury St & Erie St","totalDocks":"23","latitude":"41.893626","longitude":"-87.641527","city":"Chicago","postalCode":"60654","location":"511 W Erie St"},"geometry":{"type":"Point","coordinates":[-87.641527,41.893626]}},{"type":"Feature","properties":{"station_id":"75","name":"Canal St & Jackson Blvd","totalDocks":"39","latitude":"41.877245","longitude":"-87.639366","city":"Chicago","postalCode":"60661","location":""},"geometry":{"type":"Point","coordinates":[-87.639366,41.877245]}},{"type":"Feature","properties":{"station_id":"76","name":"Lake Shore Dr & Monroe St","totalDocks":"39","latitude":"41.880958","longitude":"-87.616743","city":"Chicago","postalCode":"60603","location":"402 E Monroe St"},"geometry":{"type":"Point","coordinates":[-87.616743,41.880958]}},{"type":"Feature","properties":{"station_id":"77","name":"Clinton St & Madison St","totalDocks":"31","latitude":"41.882242","longitude":"-87.641066","city":"Chicago","postalCode":"60661","location":"5 N Clinton St"},"geometry":{"type":"Point","coordinates":[-87.641066,41.882242]}},{"type":"Feature","properties":{"station_id":"80","name":"Aberdeen St & Monroe St","totalDocks":"19","latitude":"41.880419","longitude":"-87.655519","city":"Chicago","postalCode":"60607","location":""},"geometry":{"type":"Point","coordinates":[-87.655519,41.880419]}},{"type":"Feature","properties":{"station_id":"81","name":"Daley Center Plaza","totalDocks":"39","latitude":"41.884241","longitude":"-87.629634","city":"Chicago","postalCode":"60601","location":""},"geometry":{"type":"Point","coordinates":[-87.629634,41.884241]}},{"type":"Feature","properties":{"station_id":"84","name":"Milwaukee Ave & Grand Ave","totalDocks":"19","latitude":"41.891578","longitude":"-87.648384","city":"Chicago","postalCode":"60654","location":"500 N Milwaukee Ave."},"geometry":{"type":"Point","coordinates":[-87.648384,41.891578]}},{"type":"Feature","properties":{"station_id":"85","name":"Michigan Ave & Oak St","totalDocks":"23","latitude":"41.90096039","longitude":"-87.62377664","city":"Chicago","postalCode":"60611","location":"140 E Oak St"},"geometry":{"type":"Point","coordinates":[-87.62377664,41.90096039]}},{"type":"Feature","properties":{"station_id":"86","name":"Eckhart Park","totalDocks":"19","latitude":"41.89637337","longitude":"-87.66098386","city":"Chicago","postalCode":"60642","location":"811 N Noble St"},"geometry":{"type":"Point","coordinates":[-87.66098386,41.89637337]}},{"type":"Feature","properties":{"station_id":"87","name":"Racine Ave & Fullerton Ave","totalDocks":"19","latitude":"41.92556258","longitude":"-87.65840426","city":"Chicago","postalCode":"60614","location":"2411 N Racine Ave"},"geometry":{"type":"Point","coordinates":[-87.65840426,41.92556258]}},{"type":"Feature","properties":{"station_id":"88","name":"Racine Ave & Randolph St","totalDocks":"19","latitude":"41.884069","longitude":"-87.656853","city":"Chicago","postalCode":"60607","location":"1213 W Randolph St"},"geometry":{"type":"Point","coordinates":[-87.656853,41.884069]}},{"type":"Feature","properties":{"station_id":"89","name":"Financial Pl & Ida B Wells Dr (Temp)","totalDocks":"15","latitude":"41.874618","longitude":"-87.632882","city":"Chicago","postalCode":"60605","location":""},"geometry":{"type":"Point","coordinates":[-87.632882,41.874618]}},{"type":"Feature","properties":{"station_id":"90","name":"Millennium Park","totalDocks":"47","latitude":"41.8810317","longitude":"-87.62408432","city":"Chicago","postalCode":"60601","location":"33 S Michigan Ave"},"geometry":{"type":"Point","coordinates":[-87.62408432,41.8810317]}},{"type":"Feature","properties":{"station_id":"91","name":"Clinton St & Washington Blvd","totalDocks":"31","latitude":"41.88338","longitude":"-87.64117","city":"Chicago","postalCode":"60661","location":"109 N Clinton St"},"geometry":{"type":"Point","coordinates":[-87.64117,41.88338]}},{"type":"Feature","properties":{"station_id":"92","name":"Carpenter St & Huron St","totalDocks":"19","latitude":"41.894556","longitude":"-87.653449","city":"Chicago","postalCode":"60642","location":""},"geometry":{"type":"Point","coordinates":[-87.653449,41.894556]}},{"type":"Feature","properties":{"station_id":"93","name":"Sheffield Ave & Willow St","totalDocks":"15","latitude":"41.913688","longitude":"-87.652855","city":"Chicago","postalCode":"60614","location":"1740 N Sheffield Ave"},"geometry":{"type":"Point","coordinates":[-87.652855,41.913688]}},{"type":"Feature","properties":{"station_id":"94","name":"Clark St & Armitage Ave","totalDocks":"31","latitude":"41.918306","longitude":"-87.636282","city":"Chicago","postalCode":"60614","location":""},"geometry":{"type":"Point","coordinates":[-87.636282,41.918306]}},{"type":"Feature","properties":{"station_id":"95","name":"Stony Island Ave & 64th St","totalDocks":"11","latitude":"41.778881","longitude":"-87.586647","city":"Chicago","postalCode":"60637","location":""},"geometry":{"type":"Point","coordinates":[-87.586647,41.778881]}},{"type":"Feature","properties":{"station_id":"96","name":"Desplaines St & Randolph St","totalDocks":"23","latitude":"41.88461619","longitude":"-87.64457058","city":"Chicago","postalCode":"60661","location":""},"geometry":{"type":"Point","coordinates":[-87.64457058,41.88461619]}},{"type":"Feature","properties":{"station_id":"97","name":"Field Museum","totalDocks":"55","latitude":"41.865312","longitude":"-87.617867","city":"Chicago","postalCode":"60605","location":"Off Street"},"geometry":{"type":"Point","coordinates":[-87.617867,41.865312]}},{"type":"Feature","properties":{"station_id":"98","name":"LaSalle St & Washington St","totalDocks":"15","latitude":"41.882664","longitude":"-87.63253","city":"Chicago","postalCode":"60602","location":""},"geometry":{"type":"Point","coordinates":[-87.63253,41.882664]}},{"type":"Feature","properties":{"station_id":"99","name":"Lake Shore Dr & Ohio St","totalDocks":"19","latitude":"41.89257","longitude":"-87.614492","city":"Chicago","postalCode":"60611","location":""},"geometry":{"type":"Point","coordinates":[-87.614492,41.89257]}},{"type":"Feature","properties":{"station_id":"100","name":"Orleans St & Merchandise Mart Plaza","totalDocks":"35","latitude":"41.888243","longitude":"-87.63639","city":"Chicago","postalCode":"60654","location":"333 N Orleans St"},"geometry":{"type":"Point","coordinates":[-87.63639,41.888243]}},{"type":"Feature","properties":{"station_id":"101","name":"63rd St Beach","totalDocks":"15","latitude":"41.78101637","longitude":"-87.57611976","city":"Chicago","postalCode":"60649","location":""},"geometry":{"type":"Point","coordinates":[-87.57611976,41.78101637]}},{"type":"Feature","properties":{"station_id":"102","name":"Stony Island Ave & 67th St","totalDocks":"11","latitude":"41.7734585","longitude":"-87.58533974","city":"Chicago","postalCode":"60649","location":""},"geometry":{"type":"Point","coordinates":[-87.58533974,41.7734585]}},{"type":"Feature","properties":{"station_id":"103","name":"Clinton St & Polk St (*)","totalDocks":"16","latitude":"41.87146652","longitude":"-87.64094913","city":"Chicago","postalCode":"60607","location":""},"geometry":{"type":"Point","coordinates":[-87.64094913,41.87146652]}},{"type":"Feature","properties":{"station_id":"106","name":"State St & Pearson St","totalDocks":"27","latitude":"41.897448","longitude":"-87.628722","city":"Chicago","postalCode":"60610","location":""},"geometry":{"type":"Point","coordinates":[-87.628722,41.897448]}},{"type":"Feature","properties":{"station_id":"107","name":"Desplaines St & Jackson Blvd","totalDocks":"27","latitude":"41.878287","longitude":"-87.643909","city":"Chicago","postalCode":"60661","location":""},"geometry":{"type":"Point","coordinates":[-87.643909,41.878287]}},{"type":"Feature","properties":{"station_id":"108","name":"Halsted St & Polk St","totalDocks":"19","latitude":"41.87184","longitude":"-87.64664","city":"Chicago","postalCode":"60607","location":""},"geometry":{"type":"Point","coordinates":[-87.64664,41.87184]}},{"type":"Feature","properties":{"station_id":"109","name":"900 W Harrison St","totalDocks":"19","latitude":"41.874754","longitude":"-87.649807","city":"Chicago","postalCode":"60607","location":""},"geometry":{"type":"Point","coordinates":[-87.649807,41.874754]}},{"type":"Feature","properties":{"station_id":"110","name":"Dearborn St & Erie St","totalDocks":"27","latitude":"41.893992","longitude":"-87.629318","city":"Chicago","postalCode":"60654","location":""},"geometry":{"type":"Point","coordinates":[-87.629318,41.893992]}},{"type":"Feature","properties":{"station_id":"111","name":"Sedgwick St & Huron St","totalDocks":"27","latitude":"41.894666","longitude":"-87.638437","city":"Chicago","postalCode":"60654","location":""},"geometry":{"type":"Point","coordinates":[-87.638437,41.894666]}},{"type":"Feature","properties":{"station_id":"112","name":"Green St & Randolph St","totalDocks":"15","latitude":"41.883668","longitude":"-87.64867","city":"Chicago ","postalCode":"60607","location":""},"geometry":{"type":"Point","coordinates":[-87.64867,41.883668]}},{"type":"Feature","properties":{"station_id":"113","name":"Bissell St & Armitage Ave","totalDocks":"15","latitude":"41.91844","longitude":"-87.65222","city":"Chicago ","postalCode":"60614","location":""},"geometry":{"type":"Point","coordinates":[-87.65222,41.91844]}},{"type":"Feature","properties":{"station_id":"114","name":"Sheffield Ave & Waveland Ave","totalDocks":"27","latitude":"41.949399","longitude":"-87.654529","city":"Chicago","postalCode":"60657","location":""},"geometry":{"type":"Point","coordinates":[-87.654529,41.949399]}},{"type":"Feature","properties":{"station_id":"115","name":"Sheffield Ave & Wellington Ave","totalDocks":"23","latitude":"41.936266","longitude":"-87.652662","city":"Chicago","postalCode":"60657","location":""},"geometry":{"type":"Point","coordinates":[-87.652662,41.936266]}},{"type":"Feature","properties":{"station_id":"116","name":"Western Ave & Winnebago Ave","totalDocks":"15","latitude":"41.91552","longitude":"-87.687022","city":"Chicago","postalCode":"60647","location":""},"geometry":{"type":"Point","coordinates":[-87.687022,41.91552]}},{"type":"Feature","properties":{"station_id":"117","name":"Wilton Ave & Belmont Ave","totalDocks":"27","latitude":"41.94018","longitude":"-87.65304","city":"Chicago","postalCode":"60657","location":""},"geometry":{"type":"Point","coordinates":[-87.65304,41.94018]}},{"type":"Feature","properties":{"station_id":"118","name":"Sedgwick St & North Ave","totalDocks":"19","latitude":"41.911386","longitude":"-87.638677","city":"Chicago","postalCode":"60610","location":""},"geometry":{"type":"Point","coordinates":[-87.638677,41.911386]}},{"type":"Feature","properties":{"station_id":"119","name":"Ashland Ave & Lake St (Temp)","totalDocks":"19","latitude":"41.88592","longitude":"-87.66717","city":"Chicago","postalCode":"60612","location":""},"geometry":{"type":"Point","coordinates":[-87.66717,41.88592]}},{"type":"Feature","properties":{"station_id":"120","name":"Wentworth Ave & Cermak Rd (Temp)","totalDocks":"19","latitude":"41.853005","longitude":"-87.630578","city":"Chicago","postalCode":"60616","location":""},"geometry":{"type":"Point","coordinates":[-87.630578,41.853005]}},{"type":"Feature","properties":{"station_id":"121","name":"Blackstone Ave & Hyde Park Blvd","totalDocks":"19","latitude":"41.802562","longitude":"-87.590368","city":"Chicago","postalCode":"60615","location":""},"geometry":{"type":"Point","coordinates":[-87.590368,41.802562]}},{"type":"Feature","properties":{"station_id":"122","name":"Ogden Ave & Congress Pkwy","totalDocks":"15","latitude":"41.87501","longitude":"-87.67328","city":"Chicago","postalCode":"60612","location":""},"geometry":{"type":"Point","coordinates":[-87.67328,41.87501]}},{"type":"Feature","properties":{"station_id":"123","name":"California Ave & Milwaukee Ave","totalDocks":"15","latitude":"41.922695","longitude":"-87.697153","city":"Chicago","postalCode":"60647","location":""},"geometry":{"type":"Point","coordinates":[-87.697153,41.922695]}},{"type":"Feature","properties":{"station_id":"124","name":"Damen Ave & Cullerton St","totalDocks":"15","latitude":"41.855048","longitude":"-87.675726","city":"Chicago","postalCode":"60608","location":""},"geometry":{"type":"Point","coordinates":[-87.675726,41.855048]}},{"type":"Feature","properties":{"station_id":"125","name":"Rush St & Hubbard St","totalDocks":"23","latitude":"41.890173","longitude":"-87.626185","city":"Chicago","postalCode":"60611","location":""},"geometry":{"type":"Point","coordinates":[-87.626185,41.890173]}},{"type":"Feature","properties":{"station_id":"126","name":"Clark St & North Ave","totalDocks":"15","latitude":"41.911974","longitude":"-87.631942","city":"Chicago ","postalCode":"60614","location":""},"geometry":{"type":"Point","coordinates":[-87.631942,41.911974]}},{"type":"Feature","properties":{"station_id":"127","name":"Lincoln Ave & Fullerton Ave","totalDocks":"15","latitude":"41.925905","longitude":"-87.64926","city":"Chicago ","postalCode":"60614","location":""},"geometry":{"type":"Point","coordinates":[-87.64926,41.925905]}},{"type":"Feature","properties":{"station_id":"128","name":"Damen Ave & Chicago Ave","totalDocks":"19","latitude":"41.895769","longitude":"-87.67722","city":"Chicago","postalCode":"60622","location":""},"geometry":{"type":"Point","coordinates":[-87.67722,41.895769]}},{"type":"Feature","properties":{"station_id":"129","name":"Blue Island Ave & 18th St","totalDocks":"15","latitude":"41.857556","longitude":"-87.661535","city":"Chicago ","postalCode":"60608","location":""},"geometry":{"type":"Point","coordinates":[-87.661535,41.857556]}},{"type":"Feature","properties":{"station_id":"130","name":"Damen Ave & Division St","totalDocks":"19","latitude":"41.903266","longitude":"-87.678435","city":"Chicago ","postalCode":"60622","location":""},"geometry":{"type":"Point","coordinates":[-87.678435,41.903266]}},{"type":"Feature","properties":{"station_id":"131","name":"Lincoln Ave & Belmont Ave","totalDocks":"15","latitude":"41.939365","longitude":"-87.668385","city":"Chicago ","postalCode":"60657","location":""},"geometry":{"type":"Point","coordinates":[-87.668385,41.939365]}},{"type":"Feature","properties":{"station_id":"132","name":"Wentworth Ave & 24th St","totalDocks":"15","latitude":"41.849237","longitude":"-87.631715","city":"Chicago ","postalCode":"60616","location":""},"geometry":{"type":"Point","coordinates":[-87.631715,41.849237]}},{"type":"Feature","properties":{"station_id":"133","name":"Kingsbury St & Kinzie St","totalDocks":"31","latitude":"41.88917683","longitude":"-87.63850577","city":"Chicago","postalCode":"60654","location":""},"geometry":{"type":"Point","coordinates":[-87.63850577,41.88917683]}},{"type":"Feature","properties":{"station_id":"134","name":"Peoria St & Jackson Blvd","totalDocks":"19","latitude":"41.877749","longitude":"-87.649633","city":"Chicago","postalCode":"60607","location":""},"geometry":{"type":"Point","coordinates":[-87.649633,41.877749]}},{"type":"Feature","properties":{"station_id":"135","name":"Halsted St & 21st St","totalDocks":"11","latitude":"41.85378","longitude":"-87.64665","city":"Chicago","postalCode":"60608","location":""},"geometry":{"type":"Point","coordinates":[-87.64665,41.85378]}},{"type":"Feature","properties":{"station_id":"136","name":"Racine Ave & 13th St","totalDocks":"15","latitude":"41.865054","longitude":"-87.656959","city":"Chicago ","postalCode":"60608","location":""},"geometry":{"type":"Point","coordinates":[-87.656959,41.865054]}},{"type":"Feature","properties":{"station_id":"137","name":"Morgan Ave & 14th Pl","totalDocks":"15","latitude":"41.862378","longitude":"-87.651062","city":"Chicago ","postalCode":"60608","location":""},"geometry":{"type":"Point","coordinates":[-87.651062,41.862378]}},{"type":"Feature","properties":{"station_id":"138","name":"Clybourn Ave & Division St","totalDocks":"15","latitude":"41.904613","longitude":"-87.640552","city":"Chicago ","postalCode":"60610","location":""},"geometry":{"type":"Point","coordinates":[-87.640552,41.904613]}},{"type":"Feature","properties":{"station_id":"140","name":"Dearborn Pkwy & Delaware Pl","totalDocks":"19","latitude":"41.898969","longitude":"-87.629912","city":"Chicago ","postalCode":"60610","location":""},"geometry":{"type":"Point","coordinates":[-87.629912,41.898969]}},{"type":"Feature","properties":{"station_id":"141","name":"Clark St & Lincoln Ave","totalDocks":"23","latitude":"41.915689","longitude":"-87.6346","city":"Chicago ","postalCode":"60614","location":""},"geometry":{"type":"Point","coordinates":[-87.6346,41.915689]}},{"type":"Feature","properties":{"station_id":"142","name":"McClurg Ct & Erie St","totalDocks":"31","latitude":"41.894503","longitude":"-87.617854","city":"Chicago ","postalCode":"60611","location":"660 N McClurg Ct"},"geometry":{"type":"Point","coordinates":[-87.617854,41.894503]}},{"type":"Feature","properties":{"station_id":"143","name":"Sedgwick St & Webster Ave","totalDocks":"15","latitude":"41.922167","longitude":"-87.638888","city":"Chicago ","postalCode":"60614","location":""},"geometry":{"type":"Point","coordinates":[-87.638888,41.922167]}},{"type":"Feature","properties":{"station_id":"144","name":"Larrabee St & Webster Ave","totalDocks":"19","latitude":"41.921822","longitude":"-87.64414","city":"Chicago ","postalCode":"60614","location":""},"geometry":{"type":"Point","coordinates":[-87.64414,41.921822]}},{"type":"Feature","properties":{"station_id":"145","name":"Mies van der Rohe Way & Chestnut St","totalDocks":"19","latitude":"41.89858665","longitude":"-87.62191523","city":"Chicago","postalCode":"60611","location":""},"geometry":{"type":"Point","coordinates":[-87.62191523,41.89858665]}},{"type":"Feature","properties":{"station_id":"146","name":"Loomis St & Jackson Blvd","totalDocks":"19","latitude":"41.877945","longitude":"-87.662007","city":"Chicago ","postalCode":"60607","location":""},"geometry":{"type":"Point","coordinates":[-87.662007,41.877945]}},{"type":"Feature","properties":{"station_id":"147","name":"Indiana Ave & 26th St","totalDocks":"15","latitude":"41.845687","longitude":"-87.622481","city":"Chicago ","postalCode":"60616","location":""},"geometry":{"type":"Point","coordinates":[-87.622481,41.845687]}},{"type":"Feature","properties":{"station_id":"148","name":"State St & 33rd St","totalDocks":"15","latitude":"41.834734","longitude":"-87.625813","city":"Chicago ","postalCode":"60616","location":""},"geometry":{"type":"Point","coordinates":[-87.625813,41.834734]}},{"type":"Feature","properties":{"station_id":"149","name":"Calumet Ave & 33rd St","totalDocks":"11","latitude":"41.8349","longitude":"-87.61793","city":"Chicago ","postalCode":"60616","location":""},"geometry":{"type":"Point","coordinates":[-87.61793,41.8349]}},{"type":"Feature","properties":{"station_id":"150","name":"Fort Dearborn Dr & 31st St","totalDocks":"27","latitude":"41.838556","longitude":"-87.608218","city":"Chicago ","postalCode":"60616","location":""},"geometry":{"type":"Point","coordinates":[-87.608218,41.838556]}},{"type":"Feature","properties":{"station_id":"152","name":"Lincoln Ave & Diversey Pkwy","totalDocks":"15","latitude":"41.932225","longitude":"-87.658617","city":"Chicago ","postalCode":"60614","location":""},"geometry":{"type":"Point","coordinates":[-87.658617,41.932225]}},{"type":"Feature","properties":{"station_id":"153","name":"Southport Ave & Wellington Ave","totalDocks":"19","latitude":"41.935733","longitude":"-87.663576","city":"Chicago ","postalCode":"60657","location":""},"geometry":{"type":"Point","coordinates":[-87.663576,41.935733]}},{"type":"Feature","properties":{"station_id":"154","name":"Southport Ave & Belmont Ave","totalDocks":"15","latitude":"41.93949","longitude":"-87.66378","city":"Chicago ","postalCode":"60657","location":""},"geometry":{"type":"Point","coordinates":[-87.66378,41.93949]}},{"type":"Feature","properties":{"station_id":"156","name":"Clark St & Wellington Ave","totalDocks":"15","latitude":"41.93649682","longitude":"-87.64753866","city":"Chicago ","postalCode":"60657","location":""},"geometry":{"type":"Point","coordinates":[-87.64753866,41.93649682]}},{"type":"Feature","properties":{"station_id":"157","name":"Lake Shore Dr & Wellington Ave","totalDocks":"15","latitude":"41.936669","longitude":"-87.636794","city":"Chicago ","postalCode":"60657","location":""},"geometry":{"type":"Point","coordinates":[-87.636794,41.936669]}},{"type":"Feature","properties":{"station_id":"158","name":"Milwaukee Ave & Wabansia Ave","totalDocks":"15","latitude":"41.912616","longitude":"-87.681391","city":"Chicago ","postalCode":"60647","location":""},"geometry":{"type":"Point","coordinates":[-87.681391,41.912616]}},{"type":"Feature","properties":{"station_id":"159","name":"Claremont Ave & Hirsch St","totalDocks":"11","latitude":"41.907781","longitude":"-87.685854","city":"Chicago","postalCode":"60622","location":""},"geometry":{"type":"Point","coordinates":[-87.685854,41.907781]}},{"type":"Feature","properties":{"station_id":"160","name":"Campbell Ave & North Ave","totalDocks":"15","latitude":"41.910535","longitude":"-87.689556","city":"Chicago","postalCode":"60647","location":""},"geometry":{"type":"Point","coordinates":[-87.689556,41.910535]}},{"type":"Feature","properties":{"station_id":"161","name":"Rush St & Superior St","totalDocks":"23","latitude":"41.89576475","longitude":"-87.62590803","city":"Chicago","postalCode":"60611","location":""},"geometry":{"type":"Point","coordinates":[-87.62590803,41.89576475]}},{"type":"Feature","properties":{"station_id":"162","name":"Damen Ave & Wellington Ave","totalDocks":"15","latitude":"41.93588","longitude":"-87.67842","city":"Chicago","postalCode":"60618","location":""},"geometry":{"type":"Point","coordinates":[-87.67842,41.93588]}},{"type":"Feature","properties":{"station_id":"163","name":"Damen Ave & Clybourn Ave","totalDocks":"15","latitude":"41.931931","longitude":"-87.677856","city":"Chicago","postalCode":"60614","location":""},"geometry":{"type":"Point","coordinates":[-87.677856,41.931931]}},{"type":"Feature","properties":{"station_id":"164","name":"Franklin St & Lake St","totalDocks":"27","latitude":"41.885837","longitude":"-87.6355","city":"Chicago","postalCode":"60606","location":""},"geometry":{"type":"Point","coordinates":[-87.6355,41.885837]}},{"type":"Feature","properties":{"station_id":"165","name":"Clark St & Grace St","totalDocks":"23","latitude":"41.95078","longitude":"-87.659172","city":"Chicago","postalCode":"60613","location":""},"geometry":{"type":"Point","coordinates":[-87.659172,41.95078]}},{"type":"Feature","properties":{"station_id":"166","name":"Ashland Ave & Wrightwood Ave","totalDocks":"15","latitude":"41.92883","longitude":"-87.668507","city":"Chicago ","postalCode":"60614","location":""},"geometry":{"type":"Point","coordinates":[-87.668507,41.92883]}},{"type":"Feature","properties":{"station_id":"167","name":"Damen Ave & Coulter St","totalDocks":"7","latitude":"41.8492","longitude":"-87.67564","city":"Chicago ","postalCode":"60608","location":""},"geometry":{"type":"Point","coordinates":[-87.67564,41.8492]}},{"type":"Feature","properties":{"station_id":"168","name":"Michigan Ave & 14th St","totalDocks":"19","latitude":"41.864059","longitude":"-87.623727","city":"Chicago ","postalCode":"60605","location":""},"geometry":{"type":"Point","coordinates":[-87.623727,41.864059]}},{"type":"Feature","properties":{"station_id":"169","name":"Canal St & Harrison St","totalDocks":"15","latitude":"41.874255","longitude":"-87.639573","city":"Chicago ","postalCode":"60607","location":""},"geometry":{"type":"Point","coordinates":[-87.639573,41.874255]}},{"type":"Feature","properties":{"station_id":"170","name":"Clinton St & 18th St","totalDocks":"15","latitude":"41.85795","longitude":"-87.640826","city":"Chicago","postalCode":"60616","location":""},"geometry":{"type":"Point","coordinates":[-87.640826,41.85795]}},{"type":"Feature","properties":{"station_id":"171","name":"May St & Cullerton St","totalDocks":"11","latitude":"41.855136","longitude":"-87.654127","city":"Chicago ","postalCode":"60608","location":""},"geometry":{"type":"Point","coordinates":[-87.654127,41.855136]}},{"type":"Feature","properties":{"station_id":"172","name":"Rush St & Cedar St","totalDocks":"11","latitude":"41.9023087","longitude":"-87.62769053","city":"Chicago","postalCode":"60611","location":""},"geometry":{"type":"Point","coordinates":[-87.62769053,41.9023087]}},{"type":"Feature","properties":{"station_id":"173","name":"Mies van der Rohe Way & Chicago Ave","totalDocks":"15","latitude":"41.89691","longitude":"-87.621743","city":"Chicago ","postalCode":"60611","location":""},"geometry":{"type":"Point","coordinates":[-87.621743,41.89691]}},{"type":"Feature","properties":{"station_id":"174","name":"Canal St & Madison St","totalDocks":"35","latitude":"41.882091","longitude":"-87.639833","city":"Chicago ","postalCode":"60606","location":""},"geometry":{"type":"Point","coordinates":[-87.639833,41.882091]}},{"type":"Feature","properties":{"station_id":"175","name":"Wells St & Polk St","totalDocks":"19","latitude":"41.872596","longitude":"-87.633502","city":"Chicago ","postalCode":"60607","location":""},"geometry":{"type":"Point","coordinates":[-87.633502,41.872596]}},{"type":"Feature","properties":{"station_id":"176","name":"Clark St & Elm St","totalDocks":"39","latitude":"41.902973","longitude":"-87.63128","city":"Chicago ","postalCode":"60610","location":""},"geometry":{"type":"Point","coordinates":[-87.63128,41.902973]}},{"type":"Feature","properties":{"station_id":"177","name":"Theater on the Lake","totalDocks":"31","latitude":"41.926277","longitude":"-87.630834","city":"Chicago ","postalCode":"60614","location":""},"geometry":{"type":"Point","coordinates":[-87.630834,41.926277]}},{"type":"Feature","properties":{"station_id":"178","name":"State St & 19th St","totalDocks":"15","latitude":"41.856594","longitude":"-87.627542","city":"Chicago ","postalCode":"60616","location":""},"geometry":{"type":"Point","coordinates":[-87.627542,41.856594]}},{"type":"Feature","properties":{"station_id":"179","name":"MLK Jr Dr & Pershing Rd","totalDocks":"15","latitude":"41.8246","longitude":"-87.61678","city":"Chicago","postalCode":"60653","location":"Off Steet"},"geometry":{"type":"Point","coordinates":[-87.61678,41.8246]}},{"type":"Feature","properties":{"station_id":"180","name":"Ritchie Ct & Banks St","totalDocks":"15","latitude":"41.906866","longitude":"-87.626217","city":"Chicago","postalCode":"60610","location":""},"geometry":{"type":"Point","coordinates":[-87.626217,41.906866]}},{"type":"Feature","properties":{"station_id":"181","name":"LaSalle St & Illinois St","totalDocks":"31","latitude":"41.890762","longitude":"-87.631697","city":"Chicago","postalCode":"60654","location":"On Street"},"geometry":{"type":"Point","coordinates":[-87.631697,41.890762]}},{"type":"Feature","properties":{"station_id":"182","name":"Wells St & Elm St","totalDocks":"23","latitude":"41.903222","longitude":"-87.634324","city":"Chicago","postalCode":"60610","location":""},"geometry":{"type":"Point","coordinates":[-87.634324,41.903222]}},{"type":"Feature","properties":{"station_id":"183","name":"Damen Ave & Thomas St (Augusta Blvd)","totalDocks":"23","latitude":"41.901315","longitude":"-87.677409","city":"Chicago","postalCode":"60622","location":""},"geometry":{"type":"Point","coordinates":[-87.677409,41.901315]}},{"type":"Feature","properties":{"station_id":"184","name":"State St & 35th St","totalDocks":"15","latitude":"41.83104","longitude":"-87.62688","city":"Chicago","postalCode":"60616","location":""},"geometry":{"type":"Point","coordinates":[-87.62688,41.83104]}},{"type":"Feature","properties":{"station_id":"185","name":"Stave St & Armitage Ave","totalDocks":"11","latitude":"41.917741","longitude":"-87.691392","city":"Chicago","postalCode":"60647","location":""},"geometry":{"type":"Point","coordinates":[-87.691392,41.917741]}},{"type":"Feature","properties":{"station_id":"186","name":"Ogden Ave & Race Ave","totalDocks":"15","latitude":"41.891795","longitude":"-87.658751","city":"Chicago","postalCode":"60642","location":""},"geometry":{"type":"Point","coordinates":[-87.658751,41.891795]}},{"type":"Feature","properties":{"station_id":"188","name":"Greenview Ave & Fullerton Ave","totalDocks":"15","latitude":"41.92533","longitude":"-87.6658","city":"Chicago","postalCode":"60614","location":""},"geometry":{"type":"Point","coordinates":[-87.6658,41.92533]}},{"type":"Feature","properties":{"station_id":"190","name":"Southport Ave & Wrightwood Ave","totalDocks":"15","latitude":"41.928773","longitude":"-87.663913","city":"Chicago","postalCode":"60614","location":""},"geometry":{"type":"Point","coordinates":[-87.663913,41.928773]}},{"type":"Feature","properties":{"station_id":"191","name":"Canal St & Monroe St (*)","totalDocks":"28","latitude":"41.880381","longitude":"-87.639507","city":"Chicago","postalCode":"60661","location":""},"geometry":{"type":"Point","coordinates":[-87.639507,41.880381]}},{"type":"Feature","properties":{"station_id":"192","name":"Canal St & Adams St","totalDocks":"47","latitude":"41.879255","longitude":"-87.639904","city":"Chicago","postalCode":"60661","location":""},"geometry":{"type":"Point","coordinates":[-87.639904,41.879255]}},{"type":"Feature","properties":{"station_id":"193","name":"State St & 29th St","totalDocks":"11","latitude":"41.841707","longitude":"-87.626938","city":"Chicago","postalCode":"60616","location":""},"geometry":{"type":"Point","coordinates":[-87.626938,41.841707]}},{"type":"Feature","properties":{"station_id":"194","name":"Wabash Ave & Wacker Pl","totalDocks":"19","latitude":"41.886875","longitude":"-87.62603","city":"Chicago","postalCode":"60601","location":""},"geometry":{"type":"Point","coordinates":[-87.62603,41.886875]}},{"type":"Feature","properties":{"station_id":"195","name":"Columbus Dr & Randolph St","totalDocks":"55","latitude":"41.884728","longitude":"-87.619521","city":"Chicago","postalCode":"60601","location":""},"geometry":{"type":"Point","coordinates":[-87.619521,41.884728]}},{"type":"Feature","properties":{"station_id":"196","name":"Cityfront Plaza Dr & Pioneer Ct","totalDocks":"31","latitude":"41.890573","longitude":"-87.622072","city":"Chicago","postalCode":"60611","location":""},"geometry":{"type":"Point","coordinates":[-87.622072,41.890573]}},{"type":"Feature","properties":{"station_id":"197","name":"Michigan Ave & Madison St","totalDocks":"19","latitude":"41.882134","longitude":"-87.625125","city":"Chicago","postalCode":"60602","location":""},"geometry":{"type":"Point","coordinates":[-87.625125,41.882134]}},{"type":"Feature","properties":{"station_id":"198","name":"Green St & Madison St","totalDocks":"27","latitude":"41.881892","longitude":"-87.648789","city":"Chicago","postalCode":"60661","location":""},"geometry":{"type":"Point","coordinates":[-87.648789,41.881892]}},{"type":"Feature","properties":{"station_id":"199","name":"Wabash Ave & Grand Ave","totalDocks":"31","latitude":"41.891466","longitude":"-87.626761","city":"Chicago","postalCode":"60611","location":""},"geometry":{"type":"Point","coordinates":[-87.626761,41.891466]}},{"type":"Feature","properties":{"station_id":"200","name":"MLK Jr Dr & 47th St","totalDocks":"11","latitude":"41.809851","longitude":"-87.616279","city":"Chicago","postalCode":"60653","location":""},"geometry":{"type":"Point","coordinates":[-87.616279,41.809851]}},{"type":"Feature","properties":{"station_id":"201","name":"Indiana Ave & 40th St","totalDocks":"11","latitude":"41.82168","longitude":"-87.6216","city":"Chicago","postalCode":"60653","location":""},"geometry":{"type":"Point","coordinates":[-87.6216,41.82168]}},{"type":"Feature","properties":{"station_id":"202","name":"Halsted St & 18th St","totalDocks":"15","latitude":"41.857499","longitude":"-87.646277","city":"Chicago","postalCode":"60616","location":""},"geometry":{"type":"Point","coordinates":[-87.646277,41.857499]}},{"type":"Feature","properties":{"station_id":"203","name":"Western Ave & 21st St","totalDocks":"15","latitude":"41.854109","longitude":"-87.685838","city":"Chicago","postalCode":"60608","location":""},"geometry":{"type":"Point","coordinates":[-87.685838,41.854109]}},{"type":"Feature","properties":{"station_id":"204","name":"Prairie Ave & Garfield Blvd","totalDocks":"11","latitude":"41.794853","longitude":"-87.618691","city":"Chicago","postalCode":"60637","location":""},"geometry":{"type":"Point","coordinates":[-87.618691,41.794853]}},{"type":"Feature","properties":{"station_id":"205","name":"Paulina St & 18th St","totalDocks":"15","latitude":"41.857901","longitude":"-87.668745","city":"Chicago","postalCode":"60608","location":""},"geometry":{"type":"Point","coordinates":[-87.668745,41.857901]}},{"type":"Feature","properties":{"station_id":"206","name":"Halsted St & Archer Ave","totalDocks":"15","latitude":"41.847203","longitude":"-87.646795","city":"Chicago","postalCode":"60608","location":""},"geometry":{"type":"Point","coordinates":[-87.646795,41.847203]}},{"type":"Feature","properties":{"station_id":"207","name":"Emerald Ave & 28th St","totalDocks":"15","latitude":"41.84358","longitude":"-87.645368","city":"Chicago","postalCode":"60616","location":""},"geometry":{"type":"Point","coordinates":[-87.645368,41.84358]}},{"type":"Feature","properties":{"station_id":"208","name":"Ashland Ave & 21st St","totalDocks":"15","latitude":"41.85381","longitude":"-87.665897","city":"Chicago","postalCode":"60608","location":""},"geometry":{"type":"Point","coordinates":[-87.665897,41.85381]}},{"type":"Feature","properties":{"station_id":"209","name":"Normal Ave & Archer Ave","totalDocks":"11","latitude":"41.849527","longitude":"-87.640591","city":"Chicago","postalCode":"60616","location":""},"geometry":{"type":"Point","coordinates":[-87.640591,41.849527]}},{"type":"Feature","properties":{"station_id":"210","name":"Ashland Ave & Division St","totalDocks":"27","latitude":"41.90345","longitude":"-87.667747","city":"Chicago","postalCode":"60622","location":""},"geometry":{"type":"Point","coordinates":[-87.667747,41.90345]}},{"type":"Feature","properties":{"station_id":"211","name":"St. Clair St & Erie St","totalDocks":"18","latitude":"41.894448","longitude":"-87.622663","city":"Chicago","postalCode":"60611","location":""},"geometry":{"type":"Point","coordinates":[-87.622663,41.894448]}},{"type":"Feature","properties":{"station_id":"212","name":"Wells St & Hubbard St","totalDocks":"31","latitude":"41.889906","longitude":"-87.634266","city":"Chicago","postalCode":"60654","location":""},"geometry":{"type":"Point","coordinates":[-87.634266,41.889906]}},{"type":"Feature","properties":{"station_id":"213","name":"Leavitt St & North Ave","totalDocks":"15","latitude":"41.910153","longitude":"-87.68229","city":"Chicago","postalCode":"60622","location":""},"geometry":{"type":"Point","coordinates":[-87.68229,41.910153]}},{"type":"Feature","properties":{"station_id":"214","name":"Damen Ave & Grand Ave","totalDocks":"23","latitude":"41.89122","longitude":"-87.67686","city":"Chicago","postalCode":"60622","location":""},"geometry":{"type":"Point","coordinates":[-87.67686,41.89122]}},{"type":"Feature","properties":{"station_id":"215","name":"Damen Ave & Madison St","totalDocks":"15","latitude":"41.88137","longitude":"-87.67493","city":"Chicago","postalCode":"60612","location":""},"geometry":{"type":"Point","coordinates":[-87.67493,41.88137]}},{"type":"Feature","properties":{"station_id":"216","name":"California Ave & Division St","totalDocks":"15","latitude":"41.903029","longitude":"-87.697474","city":"Chicago","postalCode":"60622","location":""},"geometry":{"type":"Point","coordinates":[-87.697474,41.903029]}},{"type":"Feature","properties":{"station_id":"217","name":"Racine Ave (May St) & Fulton St","totalDocks":"15","latitude":"41.886926","longitude":"-87.656919","city":"Chicago","postalCode":"60607","location":""},"geometry":{"type":"Point","coordinates":[-87.656919,41.886926]}},{"type":"Feature","properties":{"station_id":"218","name":"Wells St & 19th St","totalDocks":"11","latitude":"41.856802","longitude":"-87.633879","city":"Chicago","postalCode":"60616","location":""},"geometry":{"type":"Point","coordinates":[-87.633879,41.856802]}},{"type":"Feature","properties":{"station_id":"219","name":"Damen Ave & Cortland St","totalDocks":"19","latitude":"41.915983","longitude":"-87.677335","city":"Chicago","postalCode":"60622","location":""},"geometry":{"type":"Point","coordinates":[-87.677335,41.915983]}},{"type":"Feature","properties":{"station_id":"220","name":"Clark St & Drummond Pl","totalDocks":"23","latitude":"41.931248","longitude":"-87.644336","city":"Chicago","postalCode":"60614","location":""},"geometry":{"type":"Point","coordinates":[-87.644336,41.931248]}},{"type":"Feature","properties":{"station_id":"222","name":"Milwaukee Ave & Rockwell St","totalDocks":"19","latitude":"41.920195","longitude":"-87.693033","city":"Chicago","postalCode":"60647","location":""},"geometry":{"type":"Point","coordinates":[-87.693033,41.920195]}},{"type":"Feature","properties":{"station_id":"223","name":"Clifton Ave & Armitage Ave","totalDocks":"15","latitude":"41.918216","longitude":"-87.656936","city":"Chicago","postalCode":"60614","location":""},"geometry":{"type":"Point","coordinates":[-87.656936,41.918216]}},{"type":"Feature","properties":{"station_id":"224","name":"Halsted St & Willow St","totalDocks":"19","latitude":"41.913865","longitude":"-87.648755","city":"Chicago","postalCode":"60614","location":""},"geometry":{"type":"Point","coordinates":[-87.648755,41.913865]}},{"type":"Feature","properties":{"station_id":"225","name":"Halsted St & Dickens Ave","totalDocks":"23","latitude":"41.919936","longitude":"-87.64883","city":"Chicago","postalCode":"60614","location":""},"geometry":{"type":"Point","coordinates":[-87.64883,41.919936]}},{"type":"Feature","properties":{"station_id":"226","name":"Racine Ave & Belmont Ave","totalDocks":"15","latitude":"41.939743","longitude":"-87.658865","city":"Chicago","postalCode":"60657","location":""},"geometry":{"type":"Point","coordinates":[-87.658865,41.939743]}},{"type":"Feature","properties":{"station_id":"227","name":"Southport Ave & Waveland Ave","totalDocks":"23","latitude":"41.94815","longitude":"-87.66394","city":"Chicago","postalCode":"60613","location":""},"geometry":{"type":"Point","coordinates":[-87.66394,41.94815]}},{"type":"Feature","properties":{"station_id":"228","name":"Damen Ave & Melrose Ave","totalDocks":"15","latitude":"41.9406","longitude":"-87.6785","city":"Chicago","postalCode":"60618","location":""},"geometry":{"type":"Point","coordinates":[-87.6785,41.9406]}},{"type":"Feature","properties":{"station_id":"229","name":"Southport Ave & Roscoe St","totalDocks":"19","latitude":"41.943739","longitude":"-87.66402","city":"Chicago","postalCode":"60657","location":""},"geometry":{"type":"Point","coordinates":[-87.66402,41.943739]}},{"type":"Feature","properties":{"station_id":"230","name":"Lincoln Ave & Roscoe St","totalDocks":"19","latitude":"41.94334","longitude":"-87.67097","city":"Chicago","postalCode":"60657","location":""},"geometry":{"type":"Point","coordinates":[-87.67097,41.94334]}},{"type":"Feature","properties":{"station_id":"231","name":"Sheridan Rd & Montrose Ave","totalDocks":"23","latitude":"41.96167","longitude":"-87.65464","city":"Chicago","postalCode":"60613","location":""},"geometry":{"type":"Point","coordinates":[-87.65464,41.96167]}},{"type":"Feature","properties":{"station_id":"232","name":"Pine Grove Ave & Waveland Ave","totalDocks":"23","latitude":"41.949275","longitude":"-87.646303","city":"Chicago","postalCode":"60613","location":""},"geometry":{"type":"Point","coordinates":[-87.646303,41.949275]}},{"type":"Feature","properties":{"station_id":"233","name":"Sangamon St & Washington Blvd (*)","totalDocks":"16","latitude":"41.883165","longitude":"-87.6511","city":"Chicago","postalCode":"60607","location":""},"geometry":{"type":"Point","coordinates":[-87.6511,41.883165]}},{"type":"Feature","properties":{"station_id":"234","name":"Clark St & Montrose Ave","totalDocks":"19","latitude":"41.961588","longitude":"-87.666036","city":"Chicago","postalCode":"60613","location":""},"geometry":{"type":"Point","coordinates":[-87.666036,41.961588]}},{"type":"Feature","properties":{"station_id":"236","name":"Sedgwick St & Schiller St","totalDocks":"15","latitude":"41.907626","longitude":"-87.638566","city":"Chicago","postalCode":"60610","location":""},"geometry":{"type":"Point","coordinates":[-87.638566,41.907626]}},{"type":"Feature","properties":{"station_id":"237","name":"MLK Jr Dr & 29th St","totalDocks":"19","latitude":"41.842052","longitude":"-87.617","city":"Chicago","postalCode":"60616","location":""},"geometry":{"type":"Point","coordinates":[-87.617,41.842052]}},{"type":"Feature","properties":{"station_id":"238","name":"Wolcott (Ravenswood) Ave & Montrose Ave (*)","totalDocks":"16","latitude":"41.961406","longitude":"-87.676169","city":"Chicago","postalCode":"60613","location":""},"geometry":{"type":"Point","coordinates":[-87.676169,41.961406]}},{"type":"Feature","properties":{"station_id":"239","name":"Western Ave & Leland Ave","totalDocks":"19","latitude":"41.966555","longitude":"-87.688487","city":"Chicago","postalCode":"60625","location":""},"geometry":{"type":"Point","coordinates":[-87.688487,41.966555]}},{"type":"Feature","properties":{"station_id":"240","name":"Sheridan Rd & Irving Park Rd","totalDocks":"27","latitude":"41.954245","longitude":"-87.654406","city":"Chicago","postalCode":"60613","location":""},"geometry":{"type":"Point","coordinates":[-87.654406,41.954245]}},{"type":"Feature","properties":{"station_id":"241","name":"Morgan St & Polk St","totalDocks":"19","latitude":"41.871737","longitude":"-87.65103","city":"Chicago ","postalCode":"60607","location":""},"geometry":{"type":"Point","coordinates":[-87.65103,41.871737]}},{"type":"Feature","properties":{"station_id":"242","name":"Damen Ave & Leland Ave","totalDocks":"15","latitude":"41.967094","longitude":"-87.679028","city":"Chicago ","postalCode":"60625","location":""},"geometry":{"type":"Point","coordinates":[-87.679028,41.967094]}},{"type":"Feature","properties":{"station_id":"243","name":"Lincoln Ave & Sunnyside Ave","totalDocks":"15","latitude":"41.963004","longitude":"-87.684781","city":"Chicago ","postalCode":"60625","location":""},"geometry":{"type":"Point","coordinates":[-87.684781,41.963004]}},{"type":"Feature","properties":{"station_id":"244","name":"Ravenswood Ave & Irving Park Rd","totalDocks":"19","latitude":"41.95469","longitude":"-87.67393","city":"Chicago","postalCode":"60613","location":""},"geometry":{"type":"Point","coordinates":[-87.67393,41.95469]}},{"type":"Feature","properties":{"station_id":"245","name":"Clarendon Ave & Junior Ter","totalDocks":"23","latitude":"41.961004","longitude":"-87.649603","city":"Chicago","postalCode":"60613","location":""},"geometry":{"type":"Point","coordinates":[-87.649603,41.961004]}},{"type":"Feature","properties":{"station_id":"246","name":"Ashland Ave & Belle Plaine Ave","totalDocks":"11","latitude":"41.956057","longitude":"-87.668835","city":"Chicago","postalCode":"60613","location":""},"geometry":{"type":"Point","coordinates":[-87.668835,41.956057]}},{"type":"Feature","properties":{"station_id":"247","name":"Shore Dr & 55th St","totalDocks":"19","latitude":"41.795212","longitude":"-87.580715","city":"Chicago","postalCode":"60615","location":""},"geometry":{"type":"Point","coordinates":[-87.580715,41.795212]}},{"type":"Feature","properties":{"station_id":"248","name":"Woodlawn Ave & 55th St","totalDocks":"19","latitude":"41.795264","longitude":"-87.596471","city":"Chicago","postalCode":"60615","location":""},"geometry":{"type":"Point","coordinates":[-87.596471,41.795264]}},{"type":"Feature","properties":{"station_id":"249","name":"Montrose Harbor","totalDocks":"31","latitude":"41.963982","longitude":"-87.638181","city":"Chicago","postalCode":"60613","location":""},"geometry":{"type":"Point","coordinates":[-87.638181,41.963982]}},{"type":"Feature","properties":{"station_id":"250","name":"Ashland Ave & Wellington Ave","totalDocks":"19","latitude":"41.936083","longitude":"-87.669807","city":"Chicago","postalCode":"60657","location":""},"geometry":{"type":"Point","coordinates":[-87.669807,41.936083]}},{"type":"Feature","properties":{"station_id":"251","name":"Clarendon Ave & Leland Ave","totalDocks":"15","latitude":"41.967968","longitude":"-87.650001","city":"Chicago","postalCode":"60640","location":""},"geometry":{"type":"Point","coordinates":[-87.650001,41.967968]}},{"type":"Feature","properties":{"station_id":"252","name":"Greenwood Ave & 47th St","totalDocks":"15","latitude":"41.809835","longitude":"-87.599383","city":"Chicago","postalCode":"60653","location":""},"geometry":{"type":"Point","coordinates":[-87.599383,41.809835]}},{"type":"Feature","properties":{"station_id":"253","name":"Winthrop Ave & Lawrence Ave","totalDocks":"15","latitude":"41.968812","longitude":"-87.657659","city":"Chicago","postalCode":"60640","location":""},"geometry":{"type":"Point","coordinates":[-87.657659,41.968812]}},{"type":"Feature","properties":{"station_id":"254","name":"Pine Grove Ave & Irving Park Rd","totalDocks":"15","latitude":"41.954383","longitude":"-87.648043","city":"Chicago","postalCode":"60613","location":""},"geometry":{"type":"Point","coordinates":[-87.648043,41.954383]}},{"type":"Feature","properties":{"station_id":"255","name":"Indiana Ave & Roosevelt Rd","totalDocks":"39","latitude":"41.867888","longitude":"-87.623041","city":"Chicago","postalCode":"60605","location":""},"geometry":{"type":"Point","coordinates":[-87.623041,41.867888]}},{"type":"Feature","properties":{"station_id":"256","name":"Broadway & Sheridan Rd","totalDocks":"15","latitude":"41.952833","longitude":"-87.649993","city":"Chicago","postalCode":"60613","location":""},"geometry":{"type":"Point","coordinates":[-87.649993,41.952833]}},{"type":"Feature","properties":{"station_id":"257","name":"Lincoln Ave & Waveland Ave","totalDocks":"15","latitude":"41.948797","longitude":"-87.675278","city":"Chicago","postalCode":"60613","location":""},"geometry":{"type":"Point","coordinates":[-87.675278,41.948797]}},{"type":"Feature","properties":{"station_id":"258","name":"Logan Blvd & Elston Ave","totalDocks":"27","latitude":"41.929465","longitude":"-87.684158","city":"Chicago","postalCode":"60647","location":""},"geometry":{"type":"Point","coordinates":[-87.684158,41.929465]}},{"type":"Feature","properties":{"station_id":"259","name":"California Ave & Francis Pl","totalDocks":"15","latitude":"41.918121","longitude":"-87.696972","city":"Chicago","postalCode":"60647","location":""},"geometry":{"type":"Point","coordinates":[-87.696972,41.918121]}},{"type":"Feature","properties":{"station_id":"260","name":"Kedzie Ave & Milwaukee Ave","totalDocks":"35","latitude":"41.929567","longitude":"-87.707857","city":"Chicago","postalCode":"60647","location":""},"geometry":{"type":"Point","coordinates":[-87.707857,41.929567]}},{"type":"Feature","properties":{"station_id":"261","name":"Hermitage Ave & Polk St","totalDocks":"15","latitude":"41.871514","longitude":"-87.669886","city":"Chicago","postalCode":"60612","location":""},"geometry":{"type":"Point","coordinates":[-87.669886,41.871514]}},{"type":"Feature","properties":{"station_id":"262","name":"Halsted St & 37th St","totalDocks":"11","latitude":"41.827059","longitude":"-87.64572","city":"Chicago","postalCode":"60609","location":"On Street"},"geometry":{"type":"Point","coordinates":[-87.64572,41.827059]}},{"type":"Feature","properties":{"station_id":"263","name":"Rhodes Ave & 32nd St","totalDocks":"11","latitude":"41.836208","longitude":"-87.613533","city":"Chicago","postalCode":"60616","location":""},"geometry":{"type":"Point","coordinates":[-87.613533,41.836208]}},{"type":"Feature","properties":{"station_id":"264","name":"Stetson Ave & South Water St","totalDocks":"19","latitude":"41.886835","longitude":"-87.62232","city":"Chicago","postalCode":"60601","location":""},"geometry":{"type":"Point","coordinates":[-87.62232,41.886835]}},{"type":"Feature","properties":{"station_id":"265","name":"Cottage Grove Ave & Oakwood Blvd","totalDocks":"15","latitude":"41.822985","longitude":"-87.6071","city":"Chicago","postalCode":"60653","location":""},"geometry":{"type":"Point","coordinates":[-87.6071,41.822985]}},{"type":"Feature","properties":{"station_id":"267","name":"Lake Park Ave & 47th St","totalDocks":"15","latitude":"41.809443","longitude":"-87.591875","city":"Chicago","postalCode":"60615","location":""},"geometry":{"type":"Point","coordinates":[-87.591875,41.809443]}},{"type":"Feature","properties":{"station_id":"268","name":"Lake Shore Dr & North Blvd","totalDocks":"39","latitude":"41.911722","longitude":"-87.626804","city":"Chicago","postalCode":"60610","location":""},"geometry":{"type":"Point","coordinates":[-87.626804,41.911722]}},{"type":"Feature","properties":{"station_id":"270","name":"Stony Island Ave & 75th St","totalDocks":"11","latitude":"41.75866967","longitude":"-87.58688287","city":"Chicago","postalCode":"60619","location":""},"geometry":{"type":"Point","coordinates":[-87.58688287,41.75866967]}},{"type":"Feature","properties":{"station_id":"271","name":"Cottage Grove Ave & 43rd St","totalDocks":"11","latitude":"41.816499","longitude":"-87.606582","city":"Chicago","postalCode":"60653","location":""},"geometry":{"type":"Point","coordinates":[-87.606582,41.816499]}},{"type":"Feature","properties":{"station_id":"272","name":"Indiana Ave & 31st St","totalDocks":"11","latitude":"41.838842","longitude":"-87.621857","city":"Chicago","postalCode":"60616","location":""},"geometry":{"type":"Point","coordinates":[-87.621857,41.838842]}},{"type":"Feature","properties":{"station_id":"273","name":"Michigan Ave & 18th St","totalDocks":"23","latitude":"41.857813","longitude":"-87.62455","city":"Chicago","postalCode":"60616","location":""},"geometry":{"type":"Point","coordinates":[-87.62455,41.857813]}},{"type":"Feature","properties":{"station_id":"274","name":"Racine Ave & 15th St","totalDocks":"15","latitude":"41.861267","longitude":"-87.656625","city":"Chicago","postalCode":"60608","location":""},"geometry":{"type":"Point","coordinates":[-87.656625,41.861267]}},{"type":"Feature","properties":{"station_id":"275","name":"Ashland Ave & 13th St","totalDocks":"15","latitude":"41.865234","longitude":"-87.666507","city":"Chicago","postalCode":"60608","location":""},"geometry":{"type":"Point","coordinates":[-87.666507,41.865234]}},{"type":"Feature","properties":{"station_id":"276","name":"California Ave & North Ave","totalDocks":"11","latitude":"41.91044","longitude":"-87.6972","city":"Chicago","postalCode":"60647","location":""},"geometry":{"type":"Point","coordinates":[-87.6972,41.91044]}},{"type":"Feature","properties":{"station_id":"277","name":"Ashland Ave & Grand Ave","totalDocks":"15","latitude":"41.891072","longitude":"-87.666611","city":"Chicago","postalCode":"60642","location":"Off Street"},"geometry":{"type":"Point","coordinates":[-87.666611,41.891072]}},{"type":"Feature","properties":{"station_id":"278","name":"Wallace St & 35th St","totalDocks":"15","latitude":"41.830629","longitude":"-87.64129","city":"Chicago","postalCode":"60609","location":"On Street"},"geometry":{"type":"Point","coordinates":[-87.64129,41.830629]}},{"type":"Feature","properties":{"station_id":"279","name":"Halsted St & 35th St (*)","totalDocks":"16","latitude":"41.830661","longitude":"-87.647172","city":"Chicago","postalCode":"60609","location":""},"geometry":{"type":"Point","coordinates":[-87.647172,41.830661]}},{"type":"Feature","properties":{"station_id":"280","name":"Morgan St & 31st St","totalDocks":"11","latitude":"41.8378","longitude":"-87.65114","city":"Chicago","postalCode":"60608","location":""},"geometry":{"type":"Point","coordinates":[-87.65114,41.8378]}},{"type":"Feature","properties":{"station_id":"281","name":"Western Ave & 24th St","totalDocks":"7","latitude":"41.84847","longitude":"-87.685109","city":"Chicago","postalCode":"60608","location":""},"geometry":{"type":"Point","coordinates":[-87.685109,41.84847]}},{"type":"Feature","properties":{"station_id":"282","name":"Halsted St & Maxwell St","totalDocks":"15","latitude":"41.864883","longitude":"-87.647071","city":"Chicago","postalCode":"60607","location":""},"geometry":{"type":"Point","coordinates":[-87.647071,41.864883]}},{"type":"Feature","properties":{"station_id":"283","name":"LaSalle St & Jackson Blvd","totalDocks":"35","latitude":"41.878166","longitude":"-87.631929","city":"Chicago","postalCode":"60604","location":""},"geometry":{"type":"Point","coordinates":[-87.631929,41.878166]}},{"type":"Feature","properties":{"station_id":"284","name":"Michigan Ave & Jackson Blvd","totalDocks":"23","latitude":"41.87785","longitude":"-87.62408","city":"Chicago","postalCode":"60604","location":""},"geometry":{"type":"Point","coordinates":[-87.62408,41.87785]}},{"type":"Feature","properties":{"station_id":"285","name":"Wood St & Hubbard St","totalDocks":"19","latitude":"41.889587","longitude":"-87.671956","city":"Chicago","postalCode":"60622","location":"Off Street"},"geometry":{"type":"Point","coordinates":[-87.671956,41.889587]}},{"type":"Feature","properties":{"station_id":"286","name":"Franklin St & Quincy St","totalDocks":"23","latitude":"41.878724","longitude":"-87.634793","city":"Chicago","postalCode":"60606","location":""},"geometry":{"type":"Point","coordinates":[-87.634793,41.878724]}},{"type":"Feature","properties":{"station_id":"287","name":"Franklin St & Monroe St","totalDocks":"27","latitude":"41.880317","longitude":"-87.635185","city":"Chicago","postalCode":"60606","location":""},"geometry":{"type":"Point","coordinates":[-87.635185,41.880317]}},{"type":"Feature","properties":{"station_id":"288","name":"Larrabee St & Armitage Ave","totalDocks":"14","latitude":"41.918084","longitude":"-87.643749","city":"Chicago","postalCode":"60614","location":"Off Street"},"geometry":{"type":"Point","coordinates":[-87.643749,41.918084]}},{"type":"Feature","properties":{"station_id":"289","name":"Wells St & Concord Ln","totalDocks":"19","latitude":"41.912133","longitude":"-87.634656","city":"Chicago","postalCode":"60614","location":""},"geometry":{"type":"Point","coordinates":[-87.634656,41.912133]}},{"type":"Feature","properties":{"station_id":"290","name":"Kedzie Ave & Palmer Ct","totalDocks":"15","latitude":"41.921525","longitude":"-87.707322","city":"Chicago","postalCode":"60647","location":""},"geometry":{"type":"Point","coordinates":[-87.707322,41.921525]}},{"type":"Feature","properties":{"station_id":"291","name":"Wells St & Evergreen Ave","totalDocks":"19","latitude":"41.906724","longitude":"-87.63483","city":"Chicago","postalCode":"60610","location":""},"geometry":{"type":"Point","coordinates":[-87.63483,41.906724]}},{"type":"Feature","properties":{"station_id":"292","name":"Southport Ave & Clark St","totalDocks":"11","latitude":"41.957081","longitude":"-87.664199","city":"Chicago","postalCode":"60613","location":""},"geometry":{"type":"Point","coordinates":[-87.664199,41.957081]}},{"type":"Feature","properties":{"station_id":"293","name":"Broadway & Wilson Ave","totalDocks":"23","latitude":"41.965221","longitude":"-87.658139","city":"Chicago","postalCode":"60640","location":""},"geometry":{"type":"Point","coordinates":[-87.658139,41.965221]}},{"type":"Feature","properties":{"station_id":"294","name":"Broadway & Berwyn Ave","totalDocks":"15","latitude":"41.978353","longitude":"-87.659753","city":"Chicago","postalCode":"60640","location":""},"geometry":{"type":"Point","coordinates":[-87.659753,41.978353]}},{"type":"Feature","properties":{"station_id":"295","name":"Broadway & Argyle St","totalDocks":"19","latitude":"41.973815","longitude":"-87.65966","city":"Chicago","postalCode":"60640","location":""},"geometry":{"type":"Point","coordinates":[-87.65966,41.973815]}},{"type":"Feature","properties":{"station_id":"296","name":"Broadway & Belmont Ave","totalDocks":"19","latitude":"41.940106","longitude":"-87.645451","city":"Chicago","postalCode":"60634","location":""},"geometry":{"type":"Point","coordinates":[-87.645451,41.940106]}},{"type":"Feature","properties":{"station_id":"297","name":"Paulina St & Montrose Ave","totalDocks":"15","latitude":"41.961507","longitude":"-87.671387","city":"Chicago","postalCode":"60613","location":""},"geometry":{"type":"Point","coordinates":[-87.671387,41.961507]}},{"type":"Feature","properties":{"station_id":"298","name":"Lincoln Ave & Belle Plaine Ave","totalDocks":"15","latitude":"41.955927","longitude":"-87.679259","city":"Chicago","postalCode":"60618","location":""},"geometry":{"type":"Point","coordinates":[-87.679259,41.955927]}},{"type":"Feature","properties":{"station_id":"299","name":"Halsted St & Roscoe St","totalDocks":"15","latitude":"41.94367","longitude":"-87.64895","city":"Chicago","postalCode":"60657","location":""},"geometry":{"type":"Point","coordinates":[-87.64895,41.94367]}},{"type":"Feature","properties":{"station_id":"300","name":"Broadway & Barry Ave","totalDocks":"19","latitude":"41.937725","longitude":"-87.644095","city":"Chicago","postalCode":"60657","location":""},"geometry":{"type":"Point","coordinates":[-87.644095,41.937725]}},{"type":"Feature","properties":{"station_id":"301","name":"Clark St & Schiller St","totalDocks":"19","latitude":"41.907993","longitude":"-87.631501","city":"Chicago","postalCode":"60610","location":""},"geometry":{"type":"Point","coordinates":[-87.631501,41.907993]}},{"type":"Feature","properties":{"station_id":"302","name":"Sheffield Ave & Wrightwood Ave","totalDocks":"31","latitude":"41.928712","longitude":"-87.653833","city":"Chicago","postalCode":"60614","location":""},"geometry":{"type":"Point","coordinates":[-87.653833,41.928712]}},{"type":"Feature","properties":{"station_id":"303","name":"Broadway & Cornelia Ave","totalDocks":"23","latitude":"41.945529","longitude":"-87.646439","city":"Chicago","postalCode":"60613","location":""},"geometry":{"type":"Point","coordinates":[-87.646439,41.945529]}},{"type":"Feature","properties":{"station_id":"304","name":"Broadway & Waveland Ave","totalDocks":"15","latitude":"41.949074","longitude":"-87.648636","city":"Chicago","postalCode":"60613","location":""},"geometry":{"type":"Point","coordinates":[-87.648636,41.949074]}},{"type":"Feature","properties":{"station_id":"305","name":"Western Ave & Division St","totalDocks":"23","latitude":"41.902893","longitude":"-87.687275","city":"Chicago","postalCode":"60622","location":""},"geometry":{"type":"Point","coordinates":[-87.687275,41.902893]}},{"type":"Feature","properties":{"station_id":"306","name":"Sheridan Rd & Buena Ave","totalDocks":"19","latitude":"41.958494","longitude":"-87.654966","city":"Chicago","postalCode":"60613","location":""},"geometry":{"type":"Point","coordinates":[-87.654966,41.958494]}},{"type":"Feature","properties":{"station_id":"307","name":"Southport Ave & Clybourn Ave","totalDocks":"15","latitude":"41.920771","longitude":"-87.663712","city":"Chicago","postalCode":"60614","location":""},"geometry":{"type":"Point","coordinates":[-87.663712,41.920771]}},{"type":"Feature","properties":{"station_id":"308","name":"Seeley Ave & Roscoe St","totalDocks":"11","latitude":"41.943403","longitude":"-87.679618","city":"Chicago","postalCode":"60618","location":""},"geometry":{"type":"Point","coordinates":[-87.679618,41.943403]}},{"type":"Feature","properties":{"station_id":"309","name":"Leavitt St & Armitage Ave","totalDocks":"11","latitude":"41.917805","longitude":"-87.682437","city":"Chicago","postalCode":"60647","location":""},"geometry":{"type":"Point","coordinates":[-87.682437,41.917805]}},{"type":"Feature","properties":{"station_id":"310","name":"Damen Ave & Charleston St","totalDocks":"11","latitude":"41.920082","longitude":"-87.677855","city":"Chicago","postalCode":"60647","location":""},"geometry":{"type":"Point","coordinates":[-87.677855,41.920082]}},{"type":"Feature","properties":{"station_id":"311","name":"Leavitt St & Lawrence Ave","totalDocks":"19","latitude":"41.968885","longitude":"-87.684001","city":"Chicago","postalCode":"60625","location":""},"geometry":{"type":"Point","coordinates":[-87.684001,41.968885]}},{"type":"Feature","properties":{"station_id":"312","name":"Clarendon Ave & Gordon Ter","totalDocks":"15","latitude":"41.957879","longitude":"-87.649519","city":"Chicago","postalCode":"60613","location":""},"geometry":{"type":"Point","coordinates":[-87.649519,41.957879]}},{"type":"Feature","properties":{"station_id":"313","name":"Lakeview Ave & Fullerton Pkwy","totalDocks":"19","latitude":"41.925858","longitude":"-87.638973","city":"Chicago","postalCode":"60614","location":""},"geometry":{"type":"Point","coordinates":[-87.638973,41.925858]}},{"type":"Feature","properties":{"station_id":"314","name":"Ravenswood Ave & Berteau Ave","totalDocks":"15","latitude":"41.957921","longitude":"-87.673567","city":"Chicago","postalCode":"60613","location":""},"geometry":{"type":"Point","coordinates":[-87.673567,41.957921]}},{"type":"Feature","properties":{"station_id":"315","name":"Elston Ave & Wabansia Ave","totalDocks":"23","latitude":"41.912919","longitude":"-87.664169","city":"Chicago","postalCode":"60642","location":""},"geometry":{"type":"Point","coordinates":[-87.664169,41.912919]}},{"type":"Feature","properties":{"station_id":"316","name":"Damen Ave & Sunnyside Ave","totalDocks":"19","latitude":"41.96325","longitude":"-87.679258","city":"Chicago","postalCode":"60625","location":""},"geometry":{"type":"Point","coordinates":[-87.679258,41.96325]}},{"type":"Feature","properties":{"station_id":"317","name":"Wood St & Taylor St","totalDocks":"23","latitude":"41.869154","longitude":"-87.671045","city":"Chicago","postalCode":"60612","location":""},"geometry":{"type":"Point","coordinates":[-87.671045,41.869154]}},{"type":"Feature","properties":{"station_id":"318","name":"Southport Ave & Irving Park Rd","totalDocks":"15","latitude":"41.954177","longitude":"-87.664358","city":"Chicago","postalCode":"60613","location":""},"geometry":{"type":"Point","coordinates":[-87.664358,41.954177]}},{"type":"Feature","properties":{"station_id":"319","name":"Greenview Ave & Diversey Pkwy","totalDocks":"15","latitude":"41.932595","longitude":"-87.665939","city":"Chicago","postalCode":"60657","location":""},"geometry":{"type":"Point","coordinates":[-87.665939,41.932595]}},{"type":"Feature","properties":{"station_id":"320","name":"Loomis St & Lexington St","totalDocks":"19","latitude":"41.872187","longitude":"-87.661501","city":"Chicago","postalCode":"60607","location":""},"geometry":{"type":"Point","coordinates":[-87.661501,41.872187]}},{"type":"Feature","properties":{"station_id":"321","name":"Wabash Ave & 9th St","totalDocks":"19","latitude":"41.870769","longitude":"-87.625734","city":"Chicago","postalCode":"60605","location":""},"geometry":{"type":"Point","coordinates":[-87.625734,41.870769]}},{"type":"Feature","properties":{"station_id":"322","name":"Kimbark Ave & 53rd St","totalDocks":"19","latitude":"41.799568","longitude":"-87.594747","city":"Chicago","postalCode":"60615","location":""},"geometry":{"type":"Point","coordinates":[-87.594747,41.799568]}},{"type":"Feature","properties":{"station_id":"323","name":"Sheridan Rd & Lawrence Ave","totalDocks":"19","latitude":"41.969517","longitude":"-87.654691","city":"Chicago","postalCode":"60640","location":""},"geometry":{"type":"Point","coordinates":[-87.654691,41.969517]}},{"type":"Feature","properties":{"station_id":"324","name":"Stockton Dr & Wrightwood Ave","totalDocks":"15","latitude":"41.93132","longitude":"-87.638742","city":"Chicago","postalCode":"60614","location":""},"geometry":{"type":"Point","coordinates":[-87.638742,41.93132]}},{"type":"Feature","properties":{"station_id":"325","name":"Clark St & Winnemac Ave (Temp)","totalDocks":"19","latitude":"41.973255","longitude":"-87.6697","city":"Chicago","postalCode":"60640","location":""},"geometry":{"type":"Point","coordinates":[-87.6697,41.973255]}},{"type":"Feature","properties":{"station_id":"326","name":"Clark St & Leland Ave","totalDocks":"19","latitude":"41.967096","longitude":"-87.667429","city":"Chicago","postalCode":"60640","location":""},"geometry":{"type":"Point","coordinates":[-87.667429,41.967096]}},{"type":"Feature","properties":{"station_id":"327","name":"Sheffield Ave & Webster Ave","totalDocks":"19","latitude":"41.92154","longitude":"-87.653818","city":"Chicago","postalCode":"60614","location":""},"geometry":{"type":"Point","coordinates":[-87.653818,41.92154]}},{"type":"Feature","properties":{"station_id":"328","name":"Ellis Ave & 58th St","totalDocks":"19","latitude":"41.788746","longitude":"-87.601334","city":"Chicago","postalCode":"60637","location":""},"geometry":{"type":"Point","coordinates":[-87.601334,41.788746]}},{"type":"Feature","properties":{"station_id":"329","name":"Lake Shore Dr & Diversey Pkwy","totalDocks":"23","latitude":"41.932588","longitude":"-87.636427","city":"Chicago","postalCode":"60657","location":""},"geometry":{"type":"Point","coordinates":[-87.636427,41.932588]}},{"type":"Feature","properties":{"station_id":"330","name":"Lincoln Ave & Addison St","totalDocks":"19","latitude":"41.946176","longitude":"-87.673308","city":"Chicago","postalCode":"60657","location":""},"geometry":{"type":"Point","coordinates":[-87.673308,41.946176]}},{"type":"Feature","properties":{"station_id":"331","name":"Halsted St & Clybourn Ave (*)","totalDocks":"28","latitude":"41.909668","longitude":"-87.648128","city":"Chicago","postalCode":"60642","location":""},"geometry":{"type":"Point","coordinates":[-87.648128,41.909668]}},{"type":"Feature","properties":{"station_id":"332","name":"Burling St (Halsted) & Diversey Pkwy (Temp)","totalDocks":"19","latitude":"41.93314","longitude":"-87.64776","city":"Chicago","postalCode":"60657","location":""},"geometry":{"type":"Point","coordinates":[-87.64776,41.93314]}},{"type":"Feature","properties":{"station_id":"333","name":"Ashland Ave & Blackhawk St","totalDocks":"15","latitude":"41.907066","longitude":"-87.667252","city":"Chicago","postalCode":"60622","location":""},"geometry":{"type":"Point","coordinates":[-87.667252,41.907066]}},{"type":"Feature","properties":{"station_id":"334","name":"Lake Shore Dr & Belmont Ave","totalDocks":"19","latitude":"41.940775","longitude":"-87.639192","city":"Chicago","postalCode":"60657","location":""},"geometry":{"type":"Point","coordinates":[-87.639192,41.940775]}},{"type":"Feature","properties":{"station_id":"335","name":"Calumet Ave & 35th St","totalDocks":"15","latitude":"41.831379","longitude":"-87.618034","city":"Chicago","postalCode":"60616","location":""},"geometry":{"type":"Point","coordinates":[-87.618034,41.831379]}},{"type":"Feature","properties":{"station_id":"336","name":"Cottage Grove Ave & 47th St","totalDocks":"15","latitude":"41.809855","longitude":"-87.606755","city":"Chicago","postalCode":"60653","location":"Off Street"},"geometry":{"type":"Point","coordinates":[-87.606755,41.809855]}},{"type":"Feature","properties":{"station_id":"337","name":"Clark St & Chicago Ave","totalDocks":"19","latitude":"41.896544","longitude":"-87.630931","city":"Chicago","postalCode":"60654","location":""},"geometry":{"type":"Point","coordinates":[-87.630931,41.896544]}},{"type":"Feature","properties":{"station_id":"338","name":"Calumet Ave & 18th St","totalDocks":"15","latitude":"41.857611","longitude":"-87.619407","city":"Chicago","postalCode":"60616","location":""},"geometry":{"type":"Point","coordinates":[-87.619407,41.857611]}},{"type":"Feature","properties":{"station_id":"339","name":"Emerald Ave & 31st St","totalDocks":"11","latitude":"41.838198","longitude":"-87.645143","city":"Chicago","postalCode":"60616","location":""},"geometry":{"type":"Point","coordinates":[-87.645143,41.838198]}},{"type":"Feature","properties":{"station_id":"340","name":"Clark St & Wrightwood Ave","totalDocks":"15","latitude":"41.929546","longitude":"-87.643118","city":"Chicago","postalCode":"60614","location":""},"geometry":{"type":"Point","coordinates":[-87.643118,41.929546]}},{"type":"Feature","properties":{"station_id":"341","name":"Adler Planetarium","totalDocks":"39","latitude":"41.866095","longitude":"-87.607267","city":"Chicago","postalCode":"60605","location":"Off Street"},"geometry":{"type":"Point","coordinates":[-87.607267,41.866095]}},{"type":"Feature","properties":{"station_id":"342","name":"Wolcott Ave & Polk St","totalDocks":"23","latitude":"41.871262","longitude":"-87.673688","city":"Chicago","postalCode":"60612","location":""},"geometry":{"type":"Point","coordinates":[-87.673688,41.871262]}},{"type":"Feature","properties":{"station_id":"343","name":"Racine Ave & Wrightwood Ave","totalDocks":"15","latitude":"41.928887","longitude":"-87.658971","city":"Chicago","postalCode":"60614","location":""},"geometry":{"type":"Point","coordinates":[-87.658971,41.928887]}},{"type":"Feature","properties":{"station_id":"344","name":"Ravenswood Ave & Lawrence Ave","totalDocks":"47","latitude":"41.96909","longitude":"-87.674237","city":"Chicago","postalCode":"60640","location":""},"geometry":{"type":"Point","coordinates":[-87.674237,41.96909]}},{"type":"Feature","properties":{"station_id":"345","name":"Lake Park Ave & 56th St","totalDocks":"19","latitude":"41.793242","longitude":"-87.587782","city":"Chicago","postalCode":"60637","location":""},"geometry":{"type":"Point","coordinates":[-87.587782,41.793242]}},{"type":"Feature","properties":{"station_id":"346","name":"Ada St & Washington Blvd","totalDocks":"15","latitude":"41.88283","longitude":"-87.661206","city":"Chicago","postalCode":"60607","location":""},"geometry":{"type":"Point","coordinates":[-87.661206,41.88283]}},{"type":"Feature","properties":{"station_id":"347","name":"Ashland Ave & Grace St","totalDocks":"15","latitude":"41.950687","longitude":"-87.6687","city":"Chicago","postalCode":"60613","location":""},"geometry":{"type":"Point","coordinates":[-87.6687,41.950687]}},{"type":"Feature","properties":{"station_id":"348","name":"California Ave & 21st St","totalDocks":"15","latitude":"41.854016","longitude":"-87.695445","city":"Chicago","postalCode":"60608","location":""},"geometry":{"type":"Point","coordinates":[-87.695445,41.854016]}},{"type":"Feature","properties":{"station_id":"349","name":"Halsted St & Wrightwood Ave","totalDocks":"15","latitude":"41.929143","longitude":"-87.649077","city":"Chicago","postalCode":"60614","location":""},"geometry":{"type":"Point","coordinates":[-87.649077,41.929143]}},{"type":"Feature","properties":{"station_id":"350","name":"Ashland Ave & Chicago Ave","totalDocks":"15","latitude":"41.895966","longitude":"-87.667747","city":"Chicago","postalCode":"60622","location":""},"geometry":{"type":"Point","coordinates":[-87.667747,41.895966]}},{"type":"Feature","properties":{"station_id":"351","name":"Cottage Grove Ave & 51st St","totalDocks":"15","latitude":"41.803038","longitude":"-87.606615","city":"Chicago","postalCode":"60615","location":"Off Street"},"geometry":{"type":"Point","coordinates":[-87.606615,41.803038]}},{"type":"Feature","properties":{"station_id":"352","name":"Jeffery Blvd & 67th St","totalDocks":"11","latitude":"41.77351755","longitude":"-87.57714283","city":"Chicago","postalCode":"60649","location":""},"geometry":{"type":"Point","coordinates":[-87.57714283,41.77351755]}},{"type":"Feature","properties":{"station_id":"353","name":"Clark St & Touhy Ave","totalDocks":"15","latitude":"42.01256012","longitude":"-87.67436712","city":"Chicago","postalCode":"60626","location":""},"geometry":{"type":"Point","coordinates":[-87.67436712,42.01256012]}},{"type":"Feature","properties":{"station_id":"354","name":"Sheridan Rd & Greenleaf Ave","totalDocks":"15","latitude":"42.01058656","longitude":"-87.66241209","city":"Chicago","postalCode":"60626","location":""},"geometry":{"type":"Point","coordinates":[-87.66241209,42.01058656]}},{"type":"Feature","properties":{"station_id":"355","name":"South Shore Dr & 67th St","totalDocks":"15","latitude":"41.773643","longitude":"-87.567514","city":"Chicago","postalCode":"60649","location":""},"geometry":{"type":"Point","coordinates":[-87.567514,41.773643]}},{"type":"Feature","properties":{"station_id":"356","name":"Stony Island Ave & 71st St","totalDocks":"11","latitude":"41.76649294","longitude":"-87.58646088","city":"Chicago","postalCode":"60649","location":""},"geometry":{"type":"Point","coordinates":[-87.58646088,41.76649294]}},{"type":"Feature","properties":{"station_id":"359","name":"Larrabee St & Division St","totalDocks":"23","latitude":"41.90348607","longitude":"-87.64335349","city":"Chicago","postalCode":"60610","location":""},"geometry":{"type":"Point","coordinates":[-87.64335349,41.90348607]}},{"type":"Feature","properties":{"station_id":"364","name":"Larrabee St & Oak St","totalDocks":"19","latitude":"41.90021949","longitude":"-87.64298547","city":"Chicago","postalCode":"60610","location":""},"geometry":{"type":"Point","coordinates":[-87.64298547,41.90021949]}},{"type":"Feature","properties":{"station_id":"365","name":"Halsted St & North Branch St","totalDocks":"15","latitude":"41.89936844","longitude":"-87.64847988","city":"Chicago","postalCode":"60642","location":""},"geometry":{"type":"Point","coordinates":[-87.64847988,41.89936844]}},{"type":"Feature","properties":{"station_id":"366","name":"Loomis St & Archer Ave","totalDocks":"11","latitude":"41.84163254","longitude":"-87.65743495","city":"Chicago","postalCode":"60608","location":""},"geometry":{"type":"Point","coordinates":[-87.65743495,41.84163254]}},{"type":"Feature","properties":{"station_id":"367","name":"Racine Ave & 35th St","totalDocks":"15","latitude":"41.83069611","longitude":"-87.65597591","city":"Chicago","postalCode":"60609","location":""},"geometry":{"type":"Point","coordinates":[-87.65597591,41.83069611]}},{"type":"Feature","properties":{"station_id":"368","name":"Ashland Ave & Archer Ave","totalDocks":"15","latitude":"41.83920868","longitude":"-87.66560986","city":"Chicago","postalCode":"60608","location":""},"geometry":{"type":"Point","coordinates":[-87.66560986,41.83920868]}},{"type":"Feature","properties":{"station_id":"369","name":"Wood St & 35th St","totalDocks":"11","latitude":"41.83010465","longitude":"-87.67029831","city":"Chicago","postalCode":"60609","location":"NA1"},"geometry":{"type":"Point","coordinates":[-87.67029831,41.83010465]}},{"type":"Feature","properties":{"station_id":"370","name":"Calumet Ave & 21st St","totalDocks":"15","latitude":"41.85418425","longitude":"-87.61915374","city":"Chicago","postalCode":"60616","location":""},"geometry":{"type":"Point","coordinates":[-87.61915374,41.85418425]}},{"type":"Feature","properties":{"station_id":"373","name":"Kedzie Ave & Chicago Ave","totalDocks":"11","latitude":"41.8954653","longitude":"-87.70612788","city":"Chicago","postalCode":"60622","location":""},"geometry":{"type":"Point","coordinates":[-87.70612788,41.8954653]}},{"type":"Feature","properties":{"station_id":"374","name":"Western Ave & Walton St","totalDocks":"23","latitude":"41.89841769","longitude":"-87.68659602","city":"Chicago","postalCode":"60622","location":""},"geometry":{"type":"Point","coordinates":[-87.68659602,41.89841769]}},{"type":"Feature","properties":{"station_id":"375","name":"Sacramento Blvd & Franklin Blvd","totalDocks":"11","latitude":"41.889727","longitude":"-87.70103","city":"Chicago","postalCode":"60612","location":""},"geometry":{"type":"Point","coordinates":[-87.70103,41.889727]}},{"type":"Feature","properties":{"station_id":"376","name":"Artesian Ave & Hubbard St","totalDocks":"35","latitude":"41.88949182","longitude":"-87.68821936","city":"Chicago","postalCode":"60612","location":""},"geometry":{"type":"Point","coordinates":[-87.68821936,41.88949182]}},{"type":"Feature","properties":{"station_id":"377","name":"Kedzie Ave & Lake St","totalDocks":"15","latitude":"41.88460329","longitude":"-87.70630374","city":"Chicago","postalCode":"60612","location":""},"geometry":{"type":"Point","coordinates":[-87.70630374,41.88460329]}},{"type":"Feature","properties":{"station_id":"378","name":"California Ave & Lake St","totalDocks":"11","latitude":"41.88445396","longitude":"-87.69629814","city":"Chicago","postalCode":"606012","location":""},"geometry":{"type":"Point","coordinates":[-87.69629814,41.88445396]}},{"type":"Feature","properties":{"station_id":"381","name":"Western Ave & Monroe St","totalDocks":"15","latitude":"41.87978771","longitude":"-87.68611281","city":"Chicago","postalCode":"60612","location":""},"geometry":{"type":"Point","coordinates":[-87.68611281,41.87978771]}},{"type":"Feature","properties":{"station_id":"382","name":"Western Ave & Congress Pkwy","totalDocks":"19","latitude":"41.87474885","longitude":"-87.68644528","city":"Chicago","postalCode":"606012","location":""},"geometry":{"type":"Point","coordinates":[-87.68644528,41.87474885]}},{"type":"Feature","properties":{"station_id":"383","name":"Paulina St & Flournoy St","totalDocks":"31","latitude":"41.87295","longitude":"-87.66913","city":"Chicago","postalCode":"60612","location":"Ashland Ave & Harrison St (Temp)"},"geometry":{"type":"Point","coordinates":[-87.66913,41.87295]}},{"type":"Feature","properties":{"station_id":"384","name":"Halsted St & 51st St","totalDocks":"11","latitude":"41.80183164","longitude":"-87.6452139","city":"Chicago","postalCode":"60609","location":""},"geometry":{"type":"Point","coordinates":[-87.6452139,41.80183164]}},{"type":"Feature","properties":{"station_id":"385","name":"Princeton Ave & Garfield Blvd","totalDocks":"11","latitude":"41.794982","longitude":"-87.633124","city":"Chicago","postalCode":"60609","location":""},"geometry":{"type":"Point","coordinates":[-87.633124,41.794982]}},{"type":"Feature","properties":{"station_id":"386","name":"Halsted St & 56th St","totalDocks":"11","latitude":"41.79292965","longitude":"-87.64499006","city":"Chicago","postalCode":"60621","location":""},"geometry":{"type":"Point","coordinates":[-87.64499006,41.79292965]}},{"type":"Feature","properties":{"station_id":"388","name":"Halsted St & 63rd St","totalDocks":"11","latitude":"41.77938114","longitude":"-87.64462081","city":"Chicago","postalCode":"60621","location":""},"geometry":{"type":"Point","coordinates":[-87.64462081,41.77938114]}},{"type":"Feature","properties":{"station_id":"390","name":"Wentworth Ave & 63rd St","totalDocks":"11","latitude":"41.78007963","longitude":"-87.62974631","city":"Chicago","postalCode":"60621","location":""},"geometry":{"type":"Point","coordinates":[-87.62974631,41.78007963]}},{"type":"Feature","properties":{"station_id":"391","name":"Halsted St & 69th St","totalDocks":"11","latitude":"41.76906172","longitude":"-87.64461358","city":"Chicago","postalCode":"60621","location":""},"geometry":{"type":"Point","coordinates":[-87.64461358,41.76906172]}},{"type":"Feature","properties":{"station_id":"392","name":"Perry Ave & 69th St","totalDocks":"11","latitude":"41.76929309","longitude":"-87.62819593","city":"Chicago","postalCode":"60621","location":""},"geometry":{"type":"Point","coordinates":[-87.62819593,41.76929309]}},{"type":"Feature","properties":{"station_id":"393","name":"Calumet Ave & 71st St","totalDocks":"11","latitude":"41.76550801","longitude":"-87.61691793","city":"Chicago","postalCode":"60619","location":""},"geometry":{"type":"Point","coordinates":[-87.61691793,41.76550801]}},{"type":"Feature","properties":{"station_id":"394","name":"Clark St & 9th St (AMLI)","totalDocks":"15","latitude":"41.870816","longitude":"-87.631246","city":"Chicago","postalCode":"60605","location":""},"geometry":{"type":"Point","coordinates":[-87.631246,41.870816]}},{"type":"Feature","properties":{"station_id":"395","name":"Jeffery Blvd & 76th St","totalDocks":"11","latitude":"41.75712007","longitude":"-87.57583936","city":"Chicago","postalCode":"60649","location":""},"geometry":{"type":"Point","coordinates":[-87.57583936,41.75712007]}},{"type":"Feature","properties":{"station_id":"396","name":"Yates Blvd & 75th St","totalDocks":"11","latitude":"41.758768","longitude":"-87.56644","city":"Chicago","postalCode":"60649","location":""},"geometry":{"type":"Point","coordinates":[-87.56644,41.758768]}},{"type":"Feature","properties":{"station_id":"398","name":"Rainbow Beach","totalDocks":"15","latitude":"41.75787145","longitude":"-87.54938625","city":"Chicago","postalCode":"60649","location":""},"geometry":{"type":"Point","coordinates":[-87.54938625,41.75787145]}},{"type":"Feature","properties":{"station_id":"399","name":"South Shore Dr & 74th St","totalDocks":"11","latitude":"41.76218896","longitude":"-87.55927465","city":"Chicago","postalCode":"60649","location":""},"geometry":{"type":"Point","coordinates":[-87.55927465,41.76218896]}},{"type":"Feature","properties":{"station_id":"400","name":"Cottage Grove Ave & 71st St","totalDocks":"11","latitude":"41.76571904","longitude":"-87.60495971","city":"Chicago","postalCode":"60619","location":""},"geometry":{"type":"Point","coordinates":[-87.60495971,41.76571904]}},{"type":"Feature","properties":{"station_id":"401","name":"Shields Ave & 28th Pl","totalDocks":"11","latitude":"41.842733","longitude":"-87.635491","city":"Chicago","postalCode":"60616","location":""},"geometry":{"type":"Point","coordinates":[-87.635491,41.842733]}},{"type":"Feature","properties":{"station_id":"402","name":"Shields Ave & 31st St","totalDocks":"15","latitude":"41.838464","longitude":"-87.635406","city":"Chicago","postalCode":"60616","location":""},"geometry":{"type":"Point","coordinates":[-87.635406,41.838464]}},{"type":"Feature","properties":{"station_id":"403","name":"Wentworth Ave & 33rd St","totalDocks":"15","latitude":"41.83452989","longitude":"-87.63182298","city":"Chicago","postalCode":"60616","location":""},"geometry":{"type":"Point","coordinates":[-87.63182298,41.83452989]}},{"type":"Feature","properties":{"station_id":"405","name":"Wentworth Ave & 35th St","totalDocks":"15","latitude":"41.830777","longitude":"-87.632504","city":"Chicago","postalCode":"60616","location":""},"geometry":{"type":"Point","coordinates":[-87.632504,41.830777]}},{"type":"Feature","properties":{"station_id":"406","name":"Lake Park Ave & 35th St","totalDocks":"19","latitude":"41.83127424","longitude":"-87.60879919","city":"Chicago","postalCode":"60616","location":""},"geometry":{"type":"Point","coordinates":[-87.60879919,41.83127424]}},{"type":"Feature","properties":{"station_id":"407","name":"State St & Pershing Rd","totalDocks":"11","latitude":"41.82301524","longitude":"-87.62656802","city":"Chicago","postalCode":"60609","location":""},"geometry":{"type":"Point","coordinates":[-87.62656802,41.82301524]}},{"type":"Feature","properties":{"station_id":"408","name":"Union Ave & Root St","totalDocks":"11","latitude":"41.819102","longitude":"-87.643278","city":"Chicago","postalCode":"60609","location":""},"geometry":{"type":"Point","coordinates":[-87.643278,41.819102]}},{"type":"Feature","properties":{"station_id":"409","name":"Shields Ave & 43rd St","totalDocks":"11","latitude":"41.81620768","longitude":"-87.63481935","city":"Chicago","postalCode":"60609","location":""},"geometry":{"type":"Point","coordinates":[-87.63481935,41.81620768]}},{"type":"Feature","properties":{"station_id":"410","name":"Prairie Ave & 43rd St","totalDocks":"15","latitude":"41.81665889","longitude":"-87.61941246","city":"Chicago","postalCode":"60653","location":""},"geometry":{"type":"Point","coordinates":[-87.61941246,41.81665889]}},{"type":"Feature","properties":{"station_id":"411","name":"Halsted St & 47th Pl","totalDocks":"11","latitude":"41.80813391","longitude":"-87.64561655","city":"Chicago","postalCode":"60609","location":""},"geometry":{"type":"Point","coordinates":[-87.64561655,41.80813391]}},{"type":"Feature","properties":{"station_id":"412","name":"Princeton Ave & 47th St","totalDocks":"11","latitude":"41.80931771","longitude":"-87.63344929","city":"Chicago","postalCode":"60609","location":""},"geometry":{"type":"Point","coordinates":[-87.63344929,41.80931771]}},{"type":"Feature","properties":{"station_id":"413","name":"Woodlawn Ave & Lake Park Ave","totalDocks":"15","latitude":"41.81409271","longitude":"-87.59700515","city":"Chicago","postalCode":"60653","location":""},"geometry":{"type":"Point","coordinates":[-87.59700515,41.81409271]}},{"type":"Feature","properties":{"station_id":"414","name":"Canal St & Taylor St","totalDocks":"15","latitude":"41.870257","longitude":"-87.639474","city":"Chicago","postalCode":"60607","location":""},"geometry":{"type":"Point","coordinates":[-87.639474,41.870257]}},{"type":"Feature","properties":{"station_id":"415","name":"Calumet Ave & 51st St","totalDocks":"11","latitude":"41.80229465","longitude":"-87.61805358","city":"Chicago","postalCode":"60615","location":""},"geometry":{"type":"Point","coordinates":[-87.61805358,41.80229465]}},{"type":"Feature","properties":{"station_id":"416","name":"Dorchester Ave & 49th St","totalDocks":"15","latitude":"41.805772","longitude":"-87.592464","city":"Chicago","postalCode":"60615","location":""},"geometry":{"type":"Point","coordinates":[-87.592464,41.805772]}},{"type":"Feature","properties":{"station_id":"417","name":"Cornell Ave & Hyde Park Blvd","totalDocks":"19","latitude":"41.802406","longitude":"-87.586924","city":"Chicago","postalCode":"60615","location":""},"geometry":{"type":"Point","coordinates":[-87.586924,41.802406]}},{"type":"Feature","properties":{"station_id":"418","name":"Ellis Ave & 53rd St","totalDocks":"11","latitude":"41.79933626","longitude":"-87.60095811","city":"Chicago","postalCode":"60615","location":""},"geometry":{"type":"Point","coordinates":[-87.60095811,41.79933626]}},{"type":"Feature","properties":{"station_id":"419","name":"Lake Park Ave & 53rd St","totalDocks":"15","latitude":"41.79949429","longitude":"-87.5864499","city":"Chicago","postalCode":"60615","location":""},"geometry":{"type":"Point","coordinates":[-87.5864499,41.79949429]}},{"type":"Feature","properties":{"station_id":"420","name":"Ellis Ave & 55th St","totalDocks":"19","latitude":"41.79430062","longitude":"-87.60144977","city":"Chicago","postalCode":"60637","location":""},"geometry":{"type":"Point","coordinates":[-87.60144977,41.79430062]}},{"type":"Feature","properties":{"station_id":"421","name":"MLK Jr Dr & 56th St (*)","totalDocks":"12","latitude":"41.79342946","longitude":"-87.61585326","city":"Chicago","postalCode":"60637","location":""},"geometry":{"type":"Point","coordinates":[-87.61585326,41.79342946]}},{"type":"Feature","properties":{"station_id":"422","name":"DuSable Museum","totalDocks":"11","latitude":"41.79156801","longitude":"-87.60785218","city":"Chicago","postalCode":"60637","location":""},"geometry":{"type":"Point","coordinates":[-87.60785218,41.79156801]}},{"type":"Feature","properties":{"station_id":"423","name":"University Ave & 57th St","totalDocks":"31","latitude":"41.791478","longitude":"-87.599861","city":"Chicago","postalCode":"60637","location":"Off Street"},"geometry":{"type":"Point","coordinates":[-87.599861,41.791478]}},{"type":"Feature","properties":{"station_id":"424","name":"Museum of Science and Industry","totalDocks":"27","latitude":"41.79172821","longitude":"-87.58394501","city":"Chicago","postalCode":"60637","location":""},"geometry":{"type":"Point","coordinates":[-87.58394501,41.79172821]}},{"type":"Feature","properties":{"station_id":"425","name":"Harper Ave & 59th St","totalDocks":"15","latitude":"41.78794281","longitude":"-87.58831517","city":"Chicago","postalCode":"60637","location":""},"geometry":{"type":"Point","coordinates":[-87.58831517,41.78794281]}},{"type":"Feature","properties":{"station_id":"426","name":"Ellis Ave & 60th St","totalDocks":"19","latitude":"41.78509715","longitude":"-87.60107276","city":"Chicago","postalCode":"60637","location":""},"geometry":{"type":"Point","coordinates":[-87.60107276,41.78509715]}},{"type":"Feature","properties":{"station_id":"427","name":"Cottage Grove Ave & 63rd St","totalDocks":"15","latitude":"41.78059901","longitude":"-87.60611239","city":"Chicago","postalCode":"60637","location":""},"geometry":{"type":"Point","coordinates":[-87.60611239,41.78059901]}},{"type":"Feature","properties":{"station_id":"428","name":"Dorchester Ave & 63rd St","totalDocks":"11","latitude":"41.78040565","longitude":"-87.59141599","city":"Chicago","postalCode":"606037","location":""},"geometry":{"type":"Point","coordinates":[-87.59141599,41.78040565]}},{"type":"Feature","properties":{"station_id":"429","name":"Cottage Grove Ave & 67th St","totalDocks":"11","latitude":"41.77372095","longitude":"-87.60563486","city":"Chicago","postalCode":"60637","location":""},"geometry":{"type":"Point","coordinates":[-87.60563486,41.77372095]}},{"type":"Feature","properties":{"station_id":"430","name":"MLK Jr Dr & 63rd St","totalDocks":"11","latitude":"41.78008064","longitude":"-87.61594286","city":"Chicago","postalCode":"60637","location":""},"geometry":{"type":"Point","coordinates":[-87.61594286,41.78008064]}},{"type":"Feature","properties":{"station_id":"431","name":"Eberhart Ave & 61st St","totalDocks":"11","latitude":"41.78414169","longitude":"-87.61330783","city":"Chicago","postalCode":"60637","location":""},"geometry":{"type":"Point","coordinates":[-87.61330783,41.78414169]}},{"type":"Feature","properties":{"station_id":"432","name":"Clark St & Lunt Ave","totalDocks":"19","latitude":"42.009074","longitude":"-87.67419","city":"Chicago","postalCode":"60626","location":""},"geometry":{"type":"Point","coordinates":[-87.67419,42.009074]}},{"type":"Feature","properties":{"station_id":"433","name":"Kedzie Ave & Harrison St","totalDocks":"11","latitude":"41.87359967","longitude":"-87.70487075","city":"Chicago","postalCode":"60612","location":""},"geometry":{"type":"Point","coordinates":[-87.70487075,41.87359967]}},{"type":"Feature","properties":{"station_id":"434","name":"Ogden Ave & Roosevelt Rd","totalDocks":"19","latitude":"41.86650148","longitude":"-87.68469707","city":"Chicago","postalCode":"60608","location":""},"geometry":{"type":"Point","coordinates":[-87.68469707,41.86650148]}},{"type":"Feature","properties":{"station_id":"435","name":"Kedzie Ave & Roosevelt Rd","totalDocks":"11","latitude":"41.86649278","longitude":"-87.70649618","city":"Chicago","postalCode":"60624","location":""},"geometry":{"type":"Point","coordinates":[-87.70649618,41.86649278]}},{"type":"Feature","properties":{"station_id":"436","name":"Fairfield Ave & Roosevelt Rd","totalDocks":"11","latitude":"41.866624","longitude":"-87.694521","city":"Chicago","postalCode":"60608","location":""},"geometry":{"type":"Point","coordinates":[-87.694521,41.866624]}},{"type":"Feature","properties":{"station_id":"437","name":"Washtenaw Ave & Ogden Ave (*)","totalDocks":"16","latitude":"41.861894","longitude":"-87.693511","city":"Chicago","postalCode":"60608","location":""},"geometry":{"type":"Point","coordinates":[-87.693511,41.861894]}},{"type":"Feature","properties":{"station_id":"438","name":"Central Park Ave & Ogden Ave","totalDocks":"15","latitude":"41.85420431","longitude":"-87.71540584","city":"Chicago","postalCode":"60623","location":""},"geometry":{"type":"Point","coordinates":[-87.71540584,41.85420431]}},{"type":"Feature","properties":{"station_id":"439","name":"Kedzie Ave & 21st St","totalDocks":"11","latitude":"41.85353363","longitude":"-87.70507303","city":"Chicago","postalCode":"60623","location":""},"geometry":{"type":"Point","coordinates":[-87.70507303,41.85353363]}},{"type":"Feature","properties":{"station_id":"440","name":"Central Park Ave & 24th St","totalDocks":"11","latitude":"41.8481","longitude":"-87.715068","city":"Chicago","postalCode":"60623","location":""},"geometry":{"type":"Point","coordinates":[-87.715068,41.8481]}},{"type":"Feature","properties":{"station_id":"441","name":"Kedzie Ave & 24th St","totalDocks":"11","latitude":"41.84819094","longitude":"-87.70541375","city":"Chicago","postalCode":"60623","location":""},"geometry":{"type":"Point","coordinates":[-87.70541375,41.84819094]}},{"type":"Feature","properties":{"station_id":"442","name":"California Ave & 23rd Pl","totalDocks":"11","latitude":"41.84910969","longitude":"-87.69513981","city":"Chicago","postalCode":"60608","location":""},"geometry":{"type":"Point","coordinates":[-87.69513981,41.84910969]}},{"type":"Feature","properties":{"station_id":"443","name":"Millard Ave & 26th St","totalDocks":"7","latitude":"41.84456685","longitude":"-87.71591031","city":"Chicago","postalCode":"60623","location":""},"geometry":{"type":"Point","coordinates":[-87.71591031,41.84456685]}},{"type":"Feature","properties":{"station_id":"444","name":"Albany Ave & 26th St","totalDocks":"11","latitude":"41.84447501","longitude":"-87.70201301","city":"Chicago","postalCode":"60623","location":""},"geometry":{"type":"Point","coordinates":[-87.70201301,41.84447501]}},{"type":"Feature","properties":{"station_id":"445","name":"California Ave & 26th St","totalDocks":"11","latitude":"41.84404003","longitude":"-87.69529592","city":"Chicago","postalCode":"60608","location":""},"geometry":{"type":"Point","coordinates":[-87.69529592,41.84404003]}},{"type":"Feature","properties":{"station_id":"446","name":"Western Ave & 28th St","totalDocks":"11","latitude":"41.84151771","longitude":"-87.68513144","city":"Chicago","postalCode":"60608","location":""},"geometry":{"type":"Point","coordinates":[-87.68513144,41.84151771]}},{"type":"Feature","properties":{"station_id":"447","name":"Glenwood Ave & Morse Ave","totalDocks":"15","latitude":"42.00797192","longitude":"-87.66550239","city":"Chicago","postalCode":"60626","location":"NA5"},"geometry":{"type":"Point","coordinates":[-87.66550239,42.00797192]}},{"type":"Feature","properties":{"station_id":"448","name":"Warren Park East","totalDocks":"11","latitude":"42.00454962","longitude":"-87.68066615","city":"Chicago","postalCode":"60645","location":""},"geometry":{"type":"Point","coordinates":[-87.68066615,42.00454962]}},{"type":"Feature","properties":{"station_id":"449","name":"Clark St & Columbia Ave","totalDocks":"15","latitude":"42.00445063","longitude":"-87.6724024","city":"Chicago","postalCode":"60626","location":""},"geometry":{"type":"Point","coordinates":[-87.6724024,42.00445063]}},{"type":"Feature","properties":{"station_id":"450","name":"Warren Park West","totalDocks":"11","latitude":"42.001785","longitude":"-87.688829","city":"Chicago","postalCode":"60645","location":""},"geometry":{"type":"Point","coordinates":[-87.688829,42.001785]}},{"type":"Feature","properties":{"station_id":"451","name":"Sheridan Rd & Loyola Ave","totalDocks":"23","latitude":"42.00104378","longitude":"-87.66119824","city":"Chicago","postalCode":"60626","location":""},"geometry":{"type":"Point","coordinates":[-87.66119824,42.00104378]}},{"type":"Feature","properties":{"station_id":"452","name":"Western Ave & Granville Ave","totalDocks":"11","latitude":"41.99416137","longitude":"-87.68943828","city":"Chicago","postalCode":"60659","location":""},"geometry":{"type":"Point","coordinates":[-87.68943828,41.99416137]}},{"type":"Feature","properties":{"station_id":"453","name":"Clark St & Schreiber Ave","totalDocks":"15","latitude":"41.99925182","longitude":"-87.67137734","city":"Chicago","postalCode":"60626","location":""},"geometry":{"type":"Point","coordinates":[-87.67137734,41.99925182]}},{"type":"Feature","properties":{"station_id":"454","name":"Broadway & Granville Ave","totalDocks":"23","latitude":"41.99477969","longitude":"-87.66028453","city":"Chicago","postalCode":"60660","location":""},"geometry":{"type":"Point","coordinates":[-87.66028453,41.99477969]}},{"type":"Feature","properties":{"station_id":"455","name":"Maplewood Ave & Peterson Ave","totalDocks":"11","latitude":"41.99023603","longitude":"-87.69336964","city":"Chicago","postalCode":"60659","location":""},"geometry":{"type":"Point","coordinates":[-87.69336964,41.99023603]}},{"type":"Feature","properties":{"station_id":"456","name":"2112 W Peterson Ave","totalDocks":"11","latitude":"41.991178","longitude":"-87.683593","city":"Chicago","postalCode":"60659","location":""},"geometry":{"type":"Point","coordinates":[-87.683593,41.991178]}},{"type":"Feature","properties":{"station_id":"457","name":"Clark St & Elmdale Ave","totalDocks":"19","latitude":"41.990887","longitude":"-87.669758","city":"Chicago","postalCode":"60660","location":""},"geometry":{"type":"Point","coordinates":[-87.669758,41.990887]}},{"type":"Feature","properties":{"station_id":"458","name":"Broadway & Thorndale Ave","totalDocks":"19","latitude":"41.98974251","longitude":"-87.66014062","city":"Chicago","postalCode":"60660","location":""},"geometry":{"type":"Point","coordinates":[-87.66014062,41.98974251]}},{"type":"Feature","properties":{"station_id":"459","name":"Lakefront Trail & Bryn Mawr Ave","totalDocks":"19","latitude":"41.9840367","longitude":"-87.65231047","city":"Chicago","postalCode":"60640","location":""},"geometry":{"type":"Point","coordinates":[-87.65231047,41.9840367]}},{"type":"Feature","properties":{"station_id":"460","name":"Clark St & Bryn Mawr Ave","totalDocks":"15","latitude":"41.983593","longitude":"-87.669154","city":"Chicago","postalCode":"60660","location":""},"geometry":{"type":"Point","coordinates":[-87.669154,41.983593]}},{"type":"Feature","properties":{"station_id":"461","name":"Broadway & Ridge Ave","totalDocks":"15","latitude":"41.98404461","longitude":"-87.66027383","city":"Chicago","postalCode":"60660","location":""},"geometry":{"type":"Point","coordinates":[-87.66027383,41.98404461]}},{"type":"Feature","properties":{"station_id":"462","name":"Winchester (Ravenswood) Ave & Balmoral Ave","totalDocks":"15","latitude":"41.979762","longitude":"-87.67753","city":"Chicago","postalCode":"60640","location":""},"geometry":{"type":"Point","coordinates":[-87.67753,41.979762]}},{"type":"Feature","properties":{"station_id":"463","name":"Clark St & Berwyn Ave","totalDocks":"19","latitude":"41.97799665","longitude":"-87.6680471","city":"Chicago","postalCode":"60640","location":""},"geometry":{"type":"Point","coordinates":[-87.6680471,41.97799665]}},{"type":"Feature","properties":{"station_id":"464","name":"Damen Ave & Foster Ave","totalDocks":"15","latitude":"41.9756148","longitude":"-87.67945904","city":"Chicago","postalCode":"60625","location":""},"geometry":{"type":"Point","coordinates":[-87.67945904,41.9756148]}},{"type":"Feature","properties":{"station_id":"465","name":"Marine Dr & Ainslie St","totalDocks":"23","latitude":"41.9716","longitude":"-87.650154","city":"Chicago","postalCode":"60640","location":""},"geometry":{"type":"Point","coordinates":[-87.650154,41.9716]}},{"type":"Feature","properties":{"station_id":"466","name":"Ridge Blvd & Touhy Ave","totalDocks":"11","latitude":"42.01213228","longitude":"-87.68291264","city":"Chicago","postalCode":"60645","location":""},"geometry":{"type":"Point","coordinates":[-87.68291264,42.01213228]}},{"type":"Feature","properties":{"station_id":"467","name":"Western Ave & Lunt Ave","totalDocks":"15","latitude":"42.0085944","longitude":"-87.69049224","city":"Chicago","postalCode":"60645","location":""},"geometry":{"type":"Point","coordinates":[-87.69049224,42.0085944]}},{"type":"Feature","properties":{"station_id":"468","name":"Budlong Woods Library","totalDocks":"11","latitude":"41.98366471","longitude":"-87.69642256","city":"Chicago","postalCode":"60659","location":""},"geometry":{"type":"Point","coordinates":[-87.69642256,41.98366471]}},{"type":"Feature","properties":{"station_id":"469","name":"St. Louis Ave & Balmoral Ave","totalDocks":"15","latitude":"41.98039423","longitude":"-87.71611496","city":"Chicago","postalCode":"60625","location":""},"geometry":{"type":"Point","coordinates":[-87.71611496,41.98039423]}},{"type":"Feature","properties":{"station_id":"470","name":"Kedzie Ave & Foster Ave","totalDocks":"11","latitude":"41.975672","longitude":"-87.709261","city":"Chicago","postalCode":"60625","location":""},"geometry":{"type":"Point","coordinates":[-87.709261,41.975672]}},{"type":"Feature","properties":{"station_id":"471","name":"Francisco Ave & Foster Ave","totalDocks":"15","latitude":"41.97563273","longitude":"-87.70141944","city":"Chicago","postalCode":"60625","location":""},"geometry":{"type":"Point","coordinates":[-87.70141944,41.97563273]}},{"type":"Feature","properties":{"station_id":"472","name":"Lincoln Ave & Winona St","totalDocks":"15","latitude":"41.9749113","longitude":"-87.69250256","city":"Chicago","postalCode":"60625","location":""},"geometry":{"type":"Point","coordinates":[-87.69250256,41.9749113]}},{"type":"Feature","properties":{"station_id":"474","name":"Christiana Ave & Lawrence Ave","totalDocks":"15","latitude":"41.96835449","longitude":"-87.71183067","city":"Chicago","postalCode":"60625","location":""},"geometry":{"type":"Point","coordinates":[-87.71183067,41.96835449]}},{"type":"Feature","properties":{"station_id":"475","name":"Washtenaw Ave & Lawrence Ave","totalDocks":"15","latitude":"41.968987","longitude":"-87.696027","city":"Chicago","postalCode":"60625","location":""},"geometry":{"type":"Point","coordinates":[-87.696027,41.968987]}},{"type":"Feature","properties":{"station_id":"476","name":"Kedzie Ave & Leland Ave","totalDocks":"15","latitude":"41.96668636","longitude":"-87.70805198","city":"Chicago","postalCode":"60625","location":""},"geometry":{"type":"Point","coordinates":[-87.70805198,41.96668636]}},{"type":"Feature","properties":{"station_id":"477","name":"Manor Ave & Leland Ave","totalDocks":"11","latitude":"41.965875","longitude":"-87.700825","city":"Chicago","postalCode":"60625","location":""},"geometry":{"type":"Point","coordinates":[-87.700825,41.965875]}},{"type":"Feature","properties":{"station_id":"478","name":"Rockwell St & Eastwood Ave","totalDocks":"15","latitude":"41.96590014","longitude":"-87.69363849","city":"Chicago","postalCode":"60625","location":""},"geometry":{"type":"Point","coordinates":[-87.69363849,41.96590014]}},{"type":"Feature","properties":{"station_id":"479","name":"Drake Ave & Montrose Ave","totalDocks":"15","latitude":"41.96115408","longitude":"-87.71656907","city":"Chicago","postalCode":"60618","location":""},"geometry":{"type":"Point","coordinates":[-87.71656907,41.96115408]}},{"type":"Feature","properties":{"station_id":"480","name":"Albany Ave & Montrose Ave","totalDocks":"11","latitude":"41.961041","longitude":"-87.705866","city":"Chicago","postalCode":"60625","location":""},"geometry":{"type":"Point","coordinates":[-87.705866,41.961041]}},{"type":"Feature","properties":{"station_id":"481","name":"California Ave & Montrose Ave","totalDocks":"15","latitude":"41.961068","longitude":"-87.695439","city":"Chicago","postalCode":"60618","location":""},"geometry":{"type":"Point","coordinates":[-87.695439,41.961068]}},{"type":"Feature","properties":{"station_id":"482","name":"Campbell Ave & Montrose Ave","totalDocks":"15","latitude":"41.96152593","longitude":"-87.69116504","city":"Chicago","postalCode":"60625","location":""},"geometry":{"type":"Point","coordinates":[-87.69116504,41.96152593]}},{"type":"Feature","properties":{"station_id":"483","name":"Avondale Ave & Irving Park Rd","totalDocks":"19","latitude":"41.953393","longitude":"-87.732002","city":"Chicago","postalCode":"60641","location":""},"geometry":{"type":"Point","coordinates":[-87.732002,41.953393]}},{"type":"Feature","properties":{"station_id":"484","name":"Monticello Ave & Irving Park Rd","totalDocks":"15","latitude":"41.95400484","longitude":"-87.71912818","city":"Chicago","postalCode":"60618","location":""},"geometry":{"type":"Point","coordinates":[-87.71912818,41.95400484]}},{"type":"Feature","properties":{"station_id":"485","name":"Sawyer Ave & Irving Park Rd","totalDocks":"15","latitude":"41.95358618","longitude":"-87.7093108","city":"Chicago","postalCode":"60618","location":""},"geometry":{"type":"Point","coordinates":[-87.7093108,41.95358618]}},{"type":"Feature","properties":{"station_id":"486","name":"Oakley Ave & Irving Park Rd","totalDocks":"15","latitude":"41.95434085","longitude":"-87.68607962","city":"Chicago","postalCode":"60618","location":""},"geometry":{"type":"Point","coordinates":[-87.68607962,41.95434085]}},{"type":"Feature","properties":{"station_id":"487","name":"California Ave & Byron St","totalDocks":"19","latitude":"41.95216219","longitude":"-87.69805111","city":"Chicago","postalCode":"60618","location":""},"geometry":{"type":"Point","coordinates":[-87.69805111,41.95216219]}},{"type":"Feature","properties":{"station_id":"488","name":"Pulaski Rd & Eddy St (Temp)","totalDocks":"11","latitude":"41.946264","longitude":"-87.731023","city":"Chicago","postalCode":"60641","location":""},"geometry":{"type":"Point","coordinates":[-87.731023,41.946264]}},{"type":"Feature","properties":{"station_id":"489","name":"Drake Ave & Addison St","totalDocks":"15","latitude":"41.947326","longitude":"-87.717582","city":"Chicago","postalCode":"60618","location":"Central Park Ave & Addison St"},"geometry":{"type":"Point","coordinates":[-87.717582,41.947326]}},{"type":"Feature","properties":{"station_id":"490","name":"Troy St & Elston Ave","totalDocks":"15","latitude":"41.94524357","longitude":"-87.7066499","city":"Chicago","postalCode":"60618","location":""},"geometry":{"type":"Point","coordinates":[-87.7066499,41.94524357]}},{"type":"Feature","properties":{"station_id":"491","name":"Talman Ave & Addison St","totalDocks":"15","latitude":"41.94663583","longitude":"-87.69461476","city":"Chicago","postalCode":"60618","location":""},"geometry":{"type":"Point","coordinates":[-87.69461476,41.94663583]}},{"type":"Feature","properties":{"station_id":"492","name":"Leavitt St & Addison St","totalDocks":"15","latitude":"41.946655","longitude":"-87.683359","city":"Chicago","postalCode":"60618","location":""},"geometry":{"type":"Point","coordinates":[-87.683359,41.946655]}},{"type":"Feature","properties":{"station_id":"493","name":"Western Ave & Roscoe St","totalDocks":"11","latitude":"41.943034","longitude":"-87.687288","city":"Chicago","postalCode":"60618","location":""},"geometry":{"type":"Point","coordinates":[-87.687288,41.943034]}},{"type":"Feature","properties":{"station_id":"494","name":"Kedzie Ave & Bryn Mawr Ave","totalDocks":"15","latitude":"41.98239708","longitude":"-87.70892252","city":"Chicago","postalCode":"60625","location":""},"geometry":{"type":"Point","coordinates":[-87.70892252,41.98239708]}},{"type":"Feature","properties":{"station_id":"495","name":"Keystone Ave & Montrose Ave","totalDocks":"11","latitude":"41.96110802","longitude":"-87.7289701","city":"Chicago","postalCode":"60630","location":""},"geometry":{"type":"Point","coordinates":[-87.7289701,41.96110802]}},{"type":"Feature","properties":{"station_id":"496","name":"Avers Ave & Belmont Ave","totalDocks":"11","latitude":"41.939408","longitude":"-87.723574","city":"Chicago","postalCode":"60618","location":""},"geometry":{"type":"Point","coordinates":[-87.723574,41.939408]}},{"type":"Feature","properties":{"station_id":"497","name":"Kimball Ave & Belmont Ave","totalDocks":"15","latitude":"41.939398","longitude":"-87.711561","city":"Chicago","postalCode":"60618","location":""},"geometry":{"type":"Point","coordinates":[-87.711561,41.939398]}},{"type":"Feature","properties":{"station_id":"498","name":"California Ave & Fletcher St","totalDocks":"19","latitude":"41.93842879","longitude":"-87.69800776","city":"Chicago","postalCode":"60618","location":""},"geometry":{"type":"Point","coordinates":[-87.69800776,41.93842879]}},{"type":"Feature","properties":{"station_id":"499","name":"Kosciuszko Park","totalDocks":"15","latitude":"41.93058537","longitude":"-87.72377736","city":"Chicago","postalCode":"60647","location":""},"geometry":{"type":"Point","coordinates":[-87.72377736,41.93058537]}},{"type":"Feature","properties":{"station_id":"500","name":"Central Park Ave & Elbridge Ave","totalDocks":"15","latitude":"41.93533728","longitude":"-87.71688929","city":"Chicago","postalCode":"60618","location":""},"geometry":{"type":"Point","coordinates":[-87.71688929,41.93533728]}},{"type":"Feature","properties":{"station_id":"501","name":"Richmond St & Diversey Ave","totalDocks":"15","latitude":"41.93190197","longitude":"-87.70119513","city":"Chicago","postalCode":"60647","location":""},"geometry":{"type":"Point","coordinates":[-87.70119513,41.93190197]}},{"type":"Feature","properties":{"station_id":"502","name":"California Ave & Altgeld St","totalDocks":"15","latitude":"41.92669","longitude":"-87.697668","city":"Chicago","postalCode":"60647","location":""},"geometry":{"type":"Point","coordinates":[-87.697668,41.92669]}},{"type":"Feature","properties":{"station_id":"503","name":"Drake Ave & Fullerton Ave","totalDocks":"15","latitude":"41.92439882","longitude":"-87.71544104","city":"Chicago","postalCode":"60647","location":""},"geometry":{"type":"Point","coordinates":[-87.71544104,41.92439882]}},{"type":"Feature","properties":{"station_id":"504","name":"Campbell Ave & Fullerton Ave","totalDocks":"15","latitude":"41.92463247","longitude":"-87.68930701","city":"Chicago","postalCode":"60647","location":""},"geometry":{"type":"Point","coordinates":[-87.68930701,41.92463247]}},{"type":"Feature","properties":{"station_id":"505","name":"Winchester Ave & Elston Ave","totalDocks":"15","latitude":"41.92409085","longitude":"-87.67646007","city":"Chicago","postalCode":"60614","location":""},"geometry":{"type":"Point","coordinates":[-87.67646007,41.92409085]}},{"type":"Feature","properties":{"station_id":"506","name":"Spaulding Ave & Armitage Ave","totalDocks":"15","latitude":"41.91718375","longitude":"-87.71035665","city":"Chicago","postalCode":"60647","location":""},"geometry":{"type":"Point","coordinates":[-87.71035665,41.91718375]}},{"type":"Feature","properties":{"station_id":"507","name":"Humboldt Blvd & Armitage Ave","totalDocks":"19","latitude":"41.91751339","longitude":"-87.70180896","city":"Chicago","postalCode":"60647","location":""},"geometry":{"type":"Point","coordinates":[-87.70180896,41.91751339]}},{"type":"Feature","properties":{"station_id":"508","name":"Central Park Ave & North Ave","totalDocks":"15","latitude":"41.90965688","longitude":"-87.71663195","city":"Chicago","postalCode":"60647","location":""},"geometry":{"type":"Point","coordinates":[-87.71663195,41.90965688]}},{"type":"Feature","properties":{"station_id":"509","name":"Troy St & North Ave","totalDocks":"15","latitude":"41.9097693","longitude":"-87.70528049","city":"Chicago","postalCode":"60651","location":""},"geometry":{"type":"Point","coordinates":[-87.70528049,41.9097693]}},{"type":"Feature","properties":{"station_id":"510","name":"Spaulding Ave & Division St","totalDocks":"11","latitude":"41.90270659","longitude":"-87.70921957","city":"Chicago","postalCode":"60651","location":""},"geometry":{"type":"Point","coordinates":[-87.70921957,41.90270659]}},{"type":"Feature","properties":{"station_id":"511","name":"Albany Ave & Bloomingdale Ave","totalDocks":"15","latitude":"41.91402671","longitude":"-87.70512646","city":"Chicago","postalCode":"60647","location":""},"geometry":{"type":"Point","coordinates":[-87.70512646,41.91402671]}},{"type":"Feature","properties":{"station_id":"514","name":"Ridge Blvd & Howard St","totalDocks":"11","latitude":"42.019276","longitude":"-87.68452","city":"Chicago","postalCode":"60645","location":""},"geometry":{"type":"Point","coordinates":[-87.68452,42.019276]}},{"type":"Feature","properties":{"station_id":"515","name":"Paulina St & Howard St","totalDocks":"19","latitude":"42.019159","longitude":"-87.673573","city":"Chicago","postalCode":"60626","location":""},"geometry":{"type":"Point","coordinates":[-87.673573,42.019159]}},{"type":"Feature","properties":{"station_id":"517","name":"Clark St & Jarvis Ave","totalDocks":"11","latitude":"42.015963","longitude":"-87.675005","city":"Chicago","postalCode":"60626","location":""},"geometry":{"type":"Point","coordinates":[-87.675005,42.015963]}},{"type":"Feature","properties":{"station_id":"518","name":"Conservatory Dr & Lake St","totalDocks":"11","latitude":"41.885502","longitude":"-87.716866","city":"Chicago","postalCode":"","location":""},"geometry":{"type":"Point","coordinates":[-87.716866,41.885502]}},{"type":"Feature","properties":{"station_id":"519","name":"Wolcott Ave & Fargo Ave","totalDocks":"11","latitude":"42.016977","longitude":"-87.677725","city":"Chicago","postalCode":"60626","location":""},"geometry":{"type":"Point","coordinates":[-87.677725,42.016977]}},{"type":"Feature","properties":{"station_id":"520","name":"Greenview Ave & Jarvis Ave","totalDocks":"19","latitude":"42.015962","longitude":"-87.66857","city":"Chicago","postalCode":"60626","location":""},"geometry":{"type":"Point","coordinates":[-87.66857,42.015962]}},{"type":"Feature","properties":{"station_id":"522","name":"Bosworth Ave & Howard St","totalDocks":"11","latitude":"42.019537","longitude":"-87.669563","city":"Chicago","postalCode":"60626","location":""},"geometry":{"type":"Point","coordinates":[-87.669563,42.019537]}},{"type":"Feature","properties":{"station_id":"523","name":"Eastlake Ter & Rogers Ave","totalDocks":"15","latitude":"42.021019","longitude":"-87.665086","city":"Chicago","postalCode":"60626","location":""},"geometry":{"type":"Point","coordinates":[-87.665086,42.021019]}},{"type":"Feature","properties":{"station_id":"524","name":"Austin Blvd & Chicago Ave","totalDocks":"7","latitude":"41.894887","longitude":"-87.774704","city":"Chicago","postalCode":"60651","location":""},"geometry":{"type":"Point","coordinates":[-87.774704,41.894887]}},{"type":"Feature","properties":{"station_id":"525","name":"Glenwood Ave & Touhy Ave","totalDocks":"15","latitude":"42.012701","longitude":"-87.666058","city":"Chicago","postalCode":"60626","location":""},"geometry":{"type":"Point","coordinates":[-87.666058,42.012701]}},{"type":"Feature","properties":{"station_id":"526","name":"Oakley Ave & Touhy Ave","totalDocks":"11","latitude":"42.012342","longitude":"-87.688243","city":"Chicago","postalCode":"60645","location":""},"geometry":{"type":"Point","coordinates":[-87.688243,42.012342]}},{"type":"Feature","properties":{"station_id":"527","name":"Western Ave & Howard St","totalDocks":"15","latitude":"42.018901","longitude":"-87.690048","city":"Chicago","postalCode":"60645","location":""},"geometry":{"type":"Point","coordinates":[-87.690048,42.018901]}},{"type":"Feature","properties":{"station_id":"528","name":"Pulaski Rd & Lake St","totalDocks":"11","latitude":"41.885409","longitude":"-87.726491","city":"Chicago","postalCode":"60624","location":""},"geometry":{"type":"Point","coordinates":[-87.726491,41.885409]}},{"type":"Feature","properties":{"station_id":"529","name":"Cicero Ave & Lake St","totalDocks":"11","latitude":"41.886841","longitude":"-87.745261","city":"Chicago","postalCode":"","location":""},"geometry":{"type":"Point","coordinates":[-87.745261,41.886841]}},{"type":"Feature","properties":{"station_id":"530","name":"Laramie Ave & Kinzie St","totalDocks":"11","latitude":"41.887832","longitude":"-87.755527","city":"Chicago","postalCode":"","location":""},"geometry":{"type":"Point","coordinates":[-87.755527,41.887832]}},{"type":"Feature","properties":{"station_id":"531","name":"Central Ave & Lake St","totalDocks":"11","latitude":"41.887664","longitude":"-87.765469","city":"Chicago","postalCode":"60644","location":""},"geometry":{"type":"Point","coordinates":[-87.765469,41.887664]}},{"type":"Feature","properties":{"station_id":"532","name":"Austin Blvd & Lake St","totalDocks":"11","latitude":"41.887919","longitude":"-87.774446","city":"Chicago","postalCode":"","location":""},"geometry":{"type":"Point","coordinates":[-87.774446,41.887919]}},{"type":"Feature","properties":{"station_id":"533","name":"Central Park Blvd & 5th Ave","totalDocks":"11","latitude":"41.875679","longitude":"-87.71547","city":"Chicago","postalCode":"","location":""},"geometry":{"type":"Point","coordinates":[-87.71547,41.875679]}},{"type":"Feature","properties":{"station_id":"534","name":"Karlov Ave & Madison St","totalDocks":"11","latitude":"41.88085","longitude":"-87.727907","city":"Chicago","postalCode":"60624","location":""},"geometry":{"type":"Point","coordinates":[-87.727907,41.88085]}},{"type":"Feature","properties":{"station_id":"535","name":"Pulaski Rd & Congress Pkwy","totalDocks":"11","latitude":"41.874325","longitude":"-87.725704","city":"Chicago","postalCode":"60624","location":""},"geometry":{"type":"Point","coordinates":[-87.725704,41.874325]}},{"type":"Feature","properties":{"station_id":"536","name":"Kostner Ave & Lake St","totalDocks":"11","latitude":"41.885928","longitude":"-87.73541","city":"Chicago","postalCode":"","location":""},"geometry":{"type":"Point","coordinates":[-87.73541,41.885928]}},{"type":"Feature","properties":{"station_id":"537","name":"Kenton Ave & Madison St","totalDocks":"11","latitude":"41.880708","longitude":"-87.741018","city":"Chicago","postalCode":"","location":""},"geometry":{"type":"Point","coordinates":[-87.741018,41.880708]}},{"type":"Feature","properties":{"station_id":"538","name":"Cicero Ave & Flournoy St","totalDocks":"11","latitude":"41.872131","longitude":"-87.746619","city":"Chicago","postalCode":"","location":""},"geometry":{"type":"Point","coordinates":[-87.746619,41.872131]}},{"type":"Feature","properties":{"station_id":"539","name":"Cicero Ave & Quincy St","totalDocks":"11","latitude":"41.877613","longitude":"-87.745405","city":"Chicago","postalCode":"","location":""},"geometry":{"type":"Point","coordinates":[-87.745405,41.877613]}},{"type":"Feature","properties":{"station_id":"540","name":"Laramie Ave & Madison St","totalDocks":"11","latitude":"41.880207","longitude":"-87.755337","city":"Chicago","postalCode":"","location":""},"geometry":{"type":"Point","coordinates":[-87.755337,41.880207]}},{"type":"Feature","properties":{"station_id":"541","name":"Central Ave & Harrison St","totalDocks":"11","latitude":"41.872993","longitude":"-87.764499","city":"Chicago","postalCode":"","location":""},"geometry":{"type":"Point","coordinates":[-87.764499,41.872993]}},{"type":"Feature","properties":{"station_id":"542","name":"Central Ave & Madison St","totalDocks":"11","latitude":"41.880121","longitude":"-87.763238","city":"Chicago","postalCode":"","location":""},"geometry":{"type":"Point","coordinates":[-87.763238,41.880121]}},{"type":"Feature","properties":{"station_id":"543","name":"Laramie Ave & Gladys Ave","totalDocks":"11","latitude":"41.875806","longitude":"-87.755285","city":"Chicago","postalCode":"","location":""},"geometry":{"type":"Point","coordinates":[-87.755285,41.875806]}},{"type":"Feature","properties":{"station_id":"544","name":"Austin Blvd & Madison St","totalDocks":"11","latitude":"41.880281","longitude":"-87.774453","city":"Chicago","postalCode":"60644","location":""},"geometry":{"type":"Point","coordinates":[-87.774453,41.880281]}},{"type":"Feature","properties":{"station_id":"545","name":"Kostner Ave & Adams St","totalDocks":"11","latitude":"41.877917","longitude":"-87.735737","city":"Chicago","postalCode":"","location":""},"geometry":{"type":"Point","coordinates":[-87.735737,41.877917]}},{"type":"Feature","properties":{"station_id":"546","name":"Damen Ave & Pershing Rd","totalDocks":"11","latitude":"41.823192","longitude":"-87.676597","city":"Chicago","postalCode":"","location":""},"geometry":{"type":"Point","coordinates":[-87.676597,41.823192]}},{"type":"Feature","properties":{"station_id":"547","name":"Ashland Ave & Pershing Rd","totalDocks":"11","latitude":"41.823465","longitude":"-87.665577","city":"Chicago","postalCode":"","location":""},"geometry":{"type":"Point","coordinates":[-87.665577,41.823465]}},{"type":"Feature","properties":{"station_id":"548","name":"Morgan St & Pershing Rd","totalDocks":"7","latitude":"41.823613","longitude":"-87.650931","city":"Chicago","postalCode":"","location":""},"geometry":{"type":"Point","coordinates":[-87.650931,41.823613]}},{"type":"Feature","properties":{"station_id":"549","name":"Marshfield Ave & 44th St","totalDocks":"11","latitude":"41.813996","longitude":"-87.666589","city":"Chicago","postalCode":"","location":""},"geometry":{"type":"Point","coordinates":[-87.666589,41.813996]}},{"type":"Feature","properties":{"station_id":"550","name":"Central Ave & Chicago Ave","totalDocks":"11","latitude":"41.894958","longitude":"-87.764902","city":"Chicago","postalCode":"60651","location":""},"geometry":{"type":"Point","coordinates":[-87.764902,41.894958]}},{"type":"Feature","properties":{"station_id":"551","name":"Hoyne Ave & 47th St","totalDocks":"11","latitude":"41.808227","longitude":"-87.67718","city":"Chicago","postalCode":"60609","location":""},"geometry":{"type":"Point","coordinates":[-87.67718,41.808227]}},{"type":"Feature","properties":{"station_id":"552","name":"Ashland Ave & McDowell Ave","totalDocks":"11","latitude":"41.80887","longitude":"-87.66454","city":"Chicago","postalCode":"60609","location":""},"geometry":{"type":"Point","coordinates":[-87.66454,41.80887]}},{"type":"Feature","properties":{"station_id":"553","name":"Elizabeth St & 47th St","totalDocks":"11","latitude":"41.80839","longitude":"-87.656526","city":"Chicago","postalCode":"60609","location":""},"geometry":{"type":"Point","coordinates":[-87.656526,41.80839]}},{"type":"Feature","properties":{"station_id":"554","name":"Damen Ave & 51st St","totalDocks":"7","latitude":"41.800908","longitude":"-87.674684","city":"Chicago","postalCode":"60609","location":""},"geometry":{"type":"Point","coordinates":[-87.674684,41.800908]}},{"type":"Feature","properties":{"station_id":"555","name":"Ashland Ave & 50th St","totalDocks":"11","latitude":"41.803023","longitude":"-87.664699","city":"Chicago","postalCode":"60609","location":""},"geometry":{"type":"Point","coordinates":[-87.664699,41.803023]}},{"type":"Feature","properties":{"station_id":"556","name":"Throop St & 52nd St","totalDocks":"7","latitude":"41.799659","longitude":"-87.657195","city":"Chicago","postalCode":"60609","location":""},"geometry":{"type":"Point","coordinates":[-87.657195,41.799659]}},{"type":"Feature","properties":{"station_id":"557","name":"Seeley Ave & Garfield Blvd","totalDocks":"11","latitude":"41.794087","longitude":"-87.675478","city":"Chicago","postalCode":"60609","location":""},"geometry":{"type":"Point","coordinates":[-87.675478,41.794087]}},{"type":"Feature","properties":{"station_id":"558","name":"Ashland Ave & Garfield Blvd","totalDocks":"11","latitude":"41.792822","longitude":"-87.664429","city":"Chicago","postalCode":"60636","location":""},"geometry":{"type":"Point","coordinates":[-87.664429,41.792822]}},{"type":"Feature","properties":{"station_id":"559","name":"Racine Ave & Garfield Blvd","totalDocks":"11","latitude":"41.794228","longitude":"-87.655073","city":"Chicago","postalCode":"60609","location":""},"geometry":{"type":"Point","coordinates":[-87.655073,41.794228]}},{"type":"Feature","properties":{"station_id":"560","name":"Marshfield Ave & 59th St","totalDocks":"11","latitude":"41.786833","longitude":"-87.666215","city":"Chicago","postalCode":"60636","location":""},"geometry":{"type":"Point","coordinates":[-87.666215,41.786833]}},{"type":"Feature","properties":{"station_id":"561","name":"Damen Ave & 59th St","totalDocks":"11","latitude":"41.78602","longitude":"-87.674167","city":"Chicago","postalCode":"60636","location":""},"geometry":{"type":"Point","coordinates":[-87.674167,41.78602]}},{"type":"Feature","properties":{"station_id":"562","name":"Racine Ave & 61st St","totalDocks":"11","latitude":"41.783189","longitude":"-87.654372","city":"Chicago","postalCode":"60621","location":""},"geometry":{"type":"Point","coordinates":[-87.654372,41.783189]}},{"type":"Feature","properties":{"station_id":"563","name":"Ashland Ave & 63rd St","totalDocks":"11","latitude":"41.779374","longitude":"-87.664843","city":"Chicago","postalCode":"60636","location":""},"geometry":{"type":"Point","coordinates":[-87.664843,41.779374]}},{"type":"Feature","properties":{"station_id":"564","name":"Racine Ave & 65th St","totalDocks":"11","latitude":"41.775393","longitude":"-87.654308","city":"Chicago","postalCode":"60636","location":""},"geometry":{"type":"Point","coordinates":[-87.654308,41.775393]}},{"type":"Feature","properties":{"station_id":"565","name":"Ashland Ave & 66th St","totalDocks":"7","latitude":"41.774074","longitude":"-87.663815","city":"Chicago","postalCode":"60636","location":""},"geometry":{"type":"Point","coordinates":[-87.663815,41.774074]}},{"type":"Feature","properties":{"station_id":"566","name":"Ashland Ave & 69th St","totalDocks":"11","latitude":"41.768726","longitude":"-87.664069","city":"Chicago","postalCode":"60636","location":""},"geometry":{"type":"Point","coordinates":[-87.664069,41.768726]}},{"type":"Feature","properties":{"station_id":"567","name":"May St & 69th St","totalDocks":"11","latitude":"41.768938","longitude":"-87.652934","city":"Chicago","postalCode":"60621","location":""},"geometry":{"type":"Point","coordinates":[-87.652934,41.768938]}},{"type":"Feature","properties":{"station_id":"568","name":"Normal Ave & 72nd St","totalDocks":"11","latitude":"41.763462","longitude":"-87.637297","city":"Chicago","postalCode":"60621","location":""},"geometry":{"type":"Point","coordinates":[-87.637297,41.763462]}},{"type":"Feature","properties":{"station_id":"569","name":"Woodlawn Ave & 75th St","totalDocks":"11","latitude":"41.75916","longitude":"-87.595751","city":"Chicago","postalCode":"60619","location":""},"geometry":{"type":"Point","coordinates":[-87.595751,41.75916]}},{"type":"Feature","properties":{"station_id":"570","name":"Evans Ave & 75th St","totalDocks":"11","latitude":"41.758308","longitude":"-87.606685","city":"Chicago","postalCode":"60619","location":""},"geometry":{"type":"Point","coordinates":[-87.606685,41.758308]}},{"type":"Feature","properties":{"station_id":"571","name":"Vernon Ave & 75th St","totalDocks":"11","latitude":"41.758361","longitude":"-87.614138","city":"Chicago","postalCode":"60619","location":""},"geometry":{"type":"Point","coordinates":[-87.614138,41.758361]}},{"type":"Feature","properties":{"station_id":"572","name":"State St & 76th St","totalDocks":"11","latitude":"41.756971","longitude":"-87.624621","city":"Chicago","postalCode":"60619","location":""},"geometry":{"type":"Point","coordinates":[-87.624621,41.756971]}},{"type":"Feature","properties":{"station_id":"573","name":"State St & 79th St","totalDocks":"11","latitude":"41.750794","longitude":"-87.624424","city":"Chicago","postalCode":"60619","location":""},"geometry":{"type":"Point","coordinates":[-87.624424,41.750794]}},{"type":"Feature","properties":{"station_id":"574","name":"Eberhart (Vernon) Ave & 79th St","totalDocks":"11","latitude":"41.751345","longitude":"-87.612568","city":"Chicago","postalCode":"60619","location":""},"geometry":{"type":"Point","coordinates":[-87.612568,41.751345]}},{"type":"Feature","properties":{"station_id":"575","name":"Cottage Grove Ave & 78th St","totalDocks":"11","latitude":"41.753174","longitude":"-87.605026","city":"Chicago","postalCode":"60619","location":""},"geometry":{"type":"Point","coordinates":[-87.605026,41.753174]}},{"type":"Feature","properties":{"station_id":"576","name":"Greenwood Ave & 79th St","totalDocks":"11","latitude":"41.751294","longitude":"-87.597552","city":"Chicago","postalCode":"60619","location":""},"geometry":{"type":"Point","coordinates":[-87.597552,41.751294]}},{"type":"Feature","properties":{"station_id":"577","name":"Stony Island Ave & South Chicago Ave","totalDocks":"11","latitude":"41.751173","longitude":"-87.585337","city":"Chicago","postalCode":"60617","location":""},"geometry":{"type":"Point","coordinates":[-87.585337,41.751173]}},{"type":"Feature","properties":{"station_id":"578","name":"Bennett Ave & 79th St","totalDocks":"11","latitude":"41.751785","longitude":"-87.578496","city":"Chicago","postalCode":"60649","location":""},"geometry":{"type":"Point","coordinates":[-87.578496,41.751785]}},{"type":"Feature","properties":{"station_id":"579","name":"Phillips Ave & 79th St","totalDocks":"11","latitude":"41.75182","longitude":"-87.565211","city":"Chicago","postalCode":"60649","location":""},"geometry":{"type":"Point","coordinates":[-87.565211,41.75182]}},{"type":"Feature","properties":{"station_id":"580","name":"Exchange Ave & 79th St","totalDocks":"11","latitude":"41.751731","longitude":"-87.552812","city":"Chicago","postalCode":"60617","location":""},"geometry":{"type":"Point","coordinates":[-87.552812,41.751731]}},{"type":"Feature","properties":{"station_id":"581","name":"Commercial Ave & 83rd St","totalDocks":"11","latitude":"41.744615","longitude":"-87.551208","city":"Chicago","postalCode":"60617","location":""},"geometry":{"type":"Point","coordinates":[-87.551208,41.744615]}},{"type":"Feature","properties":{"station_id":"582","name":"Phillips Ave & 83rd St","totalDocks":"11","latitude":"41.744531","longitude":"-87.56506","city":"Chicago","postalCode":"60647","location":"On-Street"},"geometry":{"type":"Point","coordinates":[-87.56506,41.744531]}},{"type":"Feature","properties":{"station_id":"583","name":"Stony Island Ave & 82nd St","totalDocks":"11","latitude":"41.746559","longitude":"-87.586005","city":"Chicago","postalCode":"60617","location":""},"geometry":{"type":"Point","coordinates":[-87.586005,41.746559]}},{"type":"Feature","properties":{"station_id":"584","name":"Ellis Ave & 83rd St","totalDocks":"11","latitude":"41.744123","longitude":"-87.599034","city":"Chicago","postalCode":"60619","location":""},"geometry":{"type":"Point","coordinates":[-87.599034,41.744123]}},{"type":"Feature","properties":{"station_id":"585","name":"Cottage Grove Ave & 83rd St","totalDocks":"11","latitude":"41.744053","longitude":"-87.604786","city":"Chicago","postalCode":"60619","location":""},"geometry":{"type":"Point","coordinates":[-87.604786,41.744053]}},{"type":"Feature","properties":{"station_id":"586","name":"MLK Jr Dr & 83rd St","totalDocks":"11","latitude":"41.743116","longitude":"-87.6148","city":"Chicago","postalCode":"60619","location":""},"geometry":{"type":"Point","coordinates":[-87.6148,41.743116]}},{"type":"Feature","properties":{"station_id":"587","name":"Wabash Ave & 83rd St","totalDocks":"11","latitude":"41.743316","longitude":"-87.622849","city":"Chicago","postalCode":"60619","location":""},"geometry":{"type":"Point","coordinates":[-87.622849,41.743316]}},{"type":"Feature","properties":{"station_id":"588","name":"South Chicago Ave & 83rd St","totalDocks":"11","latitude":"41.743921","longitude":"-87.575225","city":"Chicago","postalCode":"60617","location":""},"geometry":{"type":"Point","coordinates":[-87.575225,41.743921]}},{"type":"Feature","properties":{"station_id":"589","name":"Milwaukee Ave & Cuyler Ave","totalDocks":"11","latitude":"41.954468","longitude":"-87.749594","city":"Chicago","postalCode":"60641","location":""},"geometry":{"type":"Point","coordinates":[-87.749594,41.954468]}},{"type":"Feature","properties":{"station_id":"590","name":"Kilbourn Ave & Irving Park Rd","totalDocks":"11","latitude":"41.953733","longitude":"-87.740569","city":"Chicago","postalCode":"60641","location":""},"geometry":{"type":"Point","coordinates":[-87.740569,41.953733]}},{"type":"Feature","properties":{"station_id":"591","name":"Kilbourn Ave & Milwaukee Ave","totalDocks":"15","latitude":"41.948818","longitude":"-87.74002","city":"Chicago","postalCode":"60641","location":""},"geometry":{"type":"Point","coordinates":[-87.74002,41.948818]}},{"type":"Feature","properties":{"station_id":"592","name":"Knox Ave & Montrose Ave","totalDocks":"11","latitude":"41.960631","longitude":"-87.745359","city":"Chicago","postalCode":"60641","location":""},"geometry":{"type":"Point","coordinates":[-87.745359,41.960631]}},{"type":"Feature","properties":{"station_id":"593","name":"Halsted St & 59th St","totalDocks":"11","latitude":"41.787539","longitude":"-87.644874","city":"Chicago","postalCode":"60621","location":""},"geometry":{"type":"Point","coordinates":[-87.644874,41.787539]}},{"type":"Feature","properties":{"station_id":"594","name":"Western Blvd & 48th Pl","totalDocks":"11","latitude":"41.805661","longitude":"-87.683392","city":"Chicago","postalCode":"60609","location":""},"geometry":{"type":"Point","coordinates":[-87.683392,41.805661]}},{"type":"Feature","properties":{"station_id":"595","name":"Wabash Ave & 87th St","totalDocks":"11","latitude":"41.736646","longitude":"-87.622634","city":"Chicago","postalCode":"60619","location":""},"geometry":{"type":"Point","coordinates":[-87.622634,41.736646]}},{"type":"Feature","properties":{"station_id":"596","name":"Benson Ave & Church St","totalDocks":"15","latitude":"42.048214","longitude":"-87.683485","city":"Evanston","postalCode":"","location":""},"geometry":{"type":"Point","coordinates":[-87.683485,42.048214]}},{"type":"Feature","properties":{"station_id":"597","name":"Chicago Ave & Washington St","totalDocks":"15","latitude":"42.032562","longitude":"-87.679101","city":"Evanston","postalCode":"","location":""},"geometry":{"type":"Point","coordinates":[-87.679101,42.032562]}},{"type":"Feature","properties":{"station_id":"598","name":"Elmwood Ave & Austin St","totalDocks":"15","latitude":"42.025784","longitude":"-87.684107","city":"Evanston","postalCode":"60202","location":""},"geometry":{"type":"Point","coordinates":[-87.684107,42.025784]}},{"type":"Feature","properties":{"station_id":"599","name":"Valli Produce - Evanston Plaza","totalDocks":"15","latitude":"42.039742","longitude":"-87.699413","city":"Evanston","postalCode":"60202","location":""},"geometry":{"type":"Point","coordinates":[-87.699413,42.039742]}},{"type":"Feature","properties":{"station_id":"600","name":"Dodge Ave & Church St","totalDocks":"15","latitude":"42.048308","longitude":"-87.698224","city":"Evanston","postalCode":"","location":""},"geometry":{"type":"Point","coordinates":[-87.698224,42.048308]}},{"type":"Feature","properties":{"station_id":"601","name":"Central St Metra","totalDocks":"15","latitude":"42.063598","longitude":"-87.69873","city":"Evanston","postalCode":"","location":""},"geometry":{"type":"Point","coordinates":[-87.69873,42.063598]}},{"type":"Feature","properties":{"station_id":"602","name":"Central St & Girard Ave","totalDocks":"15","latitude":"42.064313","longitude":"-87.686152","city":"Evanston","postalCode":"60201","location":""},"geometry":{"type":"Point","coordinates":[-87.686152,42.064313]}},{"type":"Feature","properties":{"station_id":"603","name":"Chicago Ave & Sheridan Rd","totalDocks":"15","latitude":"42.050491","longitude":"-87.677821","city":"Evanston","postalCode":"60201","location":""},"geometry":{"type":"Point","coordinates":[-87.677821,42.050491]}},{"type":"Feature","properties":{"station_id":"604","name":"Sheridan Rd & Noyes St (NU)","totalDocks":"15","latitude":"42.058239","longitude":"-87.677432","city":"Evanston","postalCode":"60208","location":""},"geometry":{"type":"Point","coordinates":[-87.677432,42.058239]}},{"type":"Feature","properties":{"station_id":"605","name":"University Library (NU)","totalDocks":"15","latitude":"42.052939","longitude":"-87.673447","city":"Evanston","postalCode":"60208","location":""},"geometry":{"type":"Point","coordinates":[-87.673447,42.052939]}},{"type":"Feature","properties":{"station_id":"619","name":"Keystone Ave & Fullerton Ave","totalDocks":"11","latitude":"41.924377","longitude":"-87.728231","city":"Chicago","postalCode":"60639","location":""},"geometry":{"type":"Point","coordinates":[-87.728231,41.924377]}},{"type":"Feature","properties":{"station_id":"620","name":"Orleans St & Chestnut St (NEXT Apts)","totalDocks":"15","latitude":"41.898203","longitude":"-87.637536","city":"Chicago","postalCode":"60610","location":""},"geometry":{"type":"Point","coordinates":[-87.637536,41.898203]}},{"type":"Feature","properties":{"station_id":"621","name":"Aberdeen St & Randolph St","totalDocks":"15","latitude":"41.884114","longitude":"-87.654264","city":"Chicago","postalCode":"60607","location":""},"geometry":{"type":"Point","coordinates":[-87.654264,41.884114]}},{"type":"Feature","properties":{"station_id":"622","name":"California Ave & Cortez St","totalDocks":"15","latitude":"41.900363","longitude":"-87.696704","city":"Chicago","postalCode":"60622","location":""},"geometry":{"type":"Point","coordinates":[-87.696704,41.900363]}},{"type":"Feature","properties":{"station_id":"623","name":"Michigan Ave & 8th St","totalDocks":"43","latitude":"41.872773","longitude":"-87.623981","city":"Chicago","postalCode":"60605","location":""},"geometry":{"type":"Point","coordinates":[-87.623981,41.872773]}},{"type":"Feature","properties":{"station_id":"624","name":"Dearborn St & Van Buren St (*)","totalDocks":"16","latitude":"41.876268","longitude":"-87.629155","city":"Chicago","postalCode":"60605","location":"417 S Dearborn St"},"geometry":{"type":"Point","coordinates":[-87.629155,41.876268]}},{"type":"Feature","properties":{"station_id":"625","name":"Chicago Ave & Dempster St","totalDocks":"15","latitude":"42.041691","longitude":"-87.680687","city":"Evanston","postalCode":"60201","location":""},"geometry":{"type":"Point","coordinates":[-87.680687,42.041691]}},{"type":"Feature","properties":{"station_id":"626","name":"Delano Ct & Roosevelt Rd","totalDocks":"19","latitude":"41.867491","longitude":"-87.63219","city":"Chicago","postalCode":"60605","location":""},"geometry":{"type":"Point","coordinates":[-87.63219,41.867491]}},{"type":"Feature","properties":{"station_id":"627","name":"LaSalle Dr & Huron St (*)","totalDocks":"20","latitude":"41.894877","longitude":"-87.632326","city":"Chicago","postalCode":"60654","location":""},"geometry":{"type":"Point","coordinates":[-87.632326,41.894877]}},{"type":"Feature","properties":{"station_id":"628","name":"Walsh Park","totalDocks":"23","latitude":"41.91461","longitude":"-87.667968","city":"Chicago","postalCode":"60622","location":"Off-Street"},"geometry":{"type":"Point","coordinates":[-87.667968,41.91461]}},{"type":"Feature","properties":{"station_id":"630","name":"Kildare Ave & Montrose Ave","totalDocks":"15","latitude":"41.96108","longitude":"-87.73569","city":"Chicago","postalCode":"60630","location":"On-Street"},"geometry":{"type":"Point","coordinates":[-87.73569,41.96108]}},{"type":"Feature","properties":{"station_id":"631","name":"Malcolm X College","totalDocks":"19","latitude":"41.877618","longitude":"-87.673895","city":"Chicago","postalCode":"60612","location":""},"geometry":{"type":"Point","coordinates":[-87.673895,41.877618]}},{"type":"Feature","properties":{"station_id":"632","name":"Clark St & Newport St","totalDocks":"15","latitude":"41.94454","longitude":"-87.654678","city":"Chicago","postalCode":"60657","location":""},"geometry":{"type":"Point","coordinates":[-87.654678,41.94454]}},{"type":"Feature","properties":{"station_id":"635","name":"Fairbanks St & Superior St (*)","totalDocks":"12","latitude":"41.895748","longitude":"-87.620104","city":"Chicago","postalCode":"60611","location":""},"geometry":{"type":"Point","coordinates":[-87.620104,41.895748]}},{"type":"Feature","properties":{"station_id":"636","name":"Orleans St & Hubbard St (*)","totalDocks":"12","latitude":"41.890028","longitude":"-87.636618","city":"Chicago","postalCode":"60654","location":""},"geometry":{"type":"Point","coordinates":[-87.636618,41.890028]}},{"type":"Feature","properties":{"station_id":"637","name":"Wood St & Chicago Ave (*)","totalDocks":"16","latitude":"41.895634","longitude":"-87.672069","city":"Chicago","postalCode":"60622","location":""},"geometry":{"type":"Point","coordinates":[-87.672069,41.895634]}},{"type":"Feature","properties":{"station_id":"638","name":"Clinton St & Jackson Blvd (*)","totalDocks":"32","latitude":"41.878419","longitude":"-87.640977","city":"Chicago","postalCode":"60661","location":""},"geometry":{"type":"Point","coordinates":[-87.640977,41.878419]}},{"type":"Feature","properties":{"station_id":"639","name":"Lakefront Trail & Wilson Ave","totalDocks":"15","latitude":"41.965845","longitude":"-87.645361","city":"Chicago","postalCode":"60640","location":""},"geometry":{"type":"Point","coordinates":[-87.645361,41.965845]}},{"type":"Feature","properties":{"station_id":"640","name":"Bernard St & Elston Ave","totalDocks":"11","latitude":"41.949923","longitude":"-87.713949","city":"Chicago","postalCode":"60618","location":""},"geometry":{"type":"Point","coordinates":[-87.713949,41.949923]}},{"type":"Feature","properties":{"station_id":"641","name":"Central Park Ave & Bloomingdale Ave","totalDocks":"11","latitude":"41.914166","longitude":"-87.716755","city":"Chicago","postalCode":"60647","location":""},"geometry":{"type":"Point","coordinates":[-87.716755,41.914166]}},{"type":"Feature","properties":{"station_id":"642","name":"Latrobe Ave & Chicago Ave","totalDocks":"7","latitude":"41.894745","longitude":"-87.756895","city":"Chicago","postalCode":"60644","location":""},"geometry":{"type":"Point","coordinates":[-87.756895,41.894745]}},{"type":"Feature","properties":{"station_id":"643","name":"Smith Park (*)","totalDocks":"16","latitude":"41.892048","longitude":"-87.689397","city":"Chicago","postalCode":"60612","location":""},"geometry":{"type":"Point","coordinates":[-87.689397,41.892048]}},{"type":"Feature","properties":{"station_id":"644","name":"Western Ave & Fillmore St (*)","totalDocks":"12","latitude":"41.868563","longitude":"-87.686234","city":"Chicago","postalCode":"60612","location":""},"geometry":{"type":"Point","coordinates":[-87.686234,41.868563]}},{"type":"Feature","properties":{"station_id":"645","name":"Archer (Damen) Ave & 37th St (*)","totalDocks":"12","latitude":"41.826712","longitude":"-87.683144","city":"Chicago","postalCode":"60609","location":""},"geometry":{"type":"Point","coordinates":[-87.683144,41.826712]}},{"type":"Feature","properties":{"station_id":"646","name":"State St & 54th St","totalDocks":"11","latitude":"41.796642","longitude":"-87.625923","city":"Chicago","postalCode":"60609","location":""},"geometry":{"type":"Point","coordinates":[-87.625923,41.796642]}},{"type":"Feature","properties":{"station_id":"647","name":"Elizabeth St & 59th St","totalDocks":"7","latitude":"41.786691","longitude":"-87.655859","city":"Chicago","postalCode":"60636","location":""},"geometry":{"type":"Point","coordinates":[-87.655859,41.786691]}},{"type":"Feature","properties":{"station_id":"648","name":"Carpenter St & 63rd St","totalDocks":"7","latitude":"41.77987","longitude":"-87.650919","city":"Chicago","postalCode":"60621","location":""},"geometry":{"type":"Point","coordinates":[-87.650919,41.77987]}},{"type":"Feature","properties":{"station_id":"649","name":"Stewart Ave & 63rd St (*)","totalDocks":"12","latitude":"41.779835","longitude":"-87.634774","city":"Chicago","postalCode":"60621","location":""},"geometry":{"type":"Point","coordinates":[-87.634774,41.779835]}},{"type":"Feature","properties":{"station_id":"650","name":"Eggleston Ave & 69th St (*)","totalDocks":"12","latitude":"41.768898","longitude":"-87.635876","city":"Chicago","postalCode":"60621","location":""},"geometry":{"type":"Point","coordinates":[-87.635876,41.768898]}},{"type":"Feature","properties":{"station_id":"651","name":"Michigan Ave & 71st St","totalDocks":"7","latitude":"41.765286","longitude":"-87.621748","city":"Chicago","postalCode":"60619","location":""},"geometry":{"type":"Point","coordinates":[-87.621748,41.765286]}},{"type":"Feature","properties":{"station_id":"652","name":"Rhodes Ave & 71st St","totalDocks":"11","latitude":"41.766","longitude":"-87.611726","city":"Chicago","postalCode":"60637","location":""},"geometry":{"type":"Point","coordinates":[-87.611726,41.766]}},{"type":"Feature","properties":{"station_id":"653","name":"Cornell Dr & Hayes Dr","totalDocks":"11","latitude":"41.780595","longitude":"-87.584846","city":"Chicago","postalCode":"60649","location":""},"geometry":{"type":"Point","coordinates":[-87.584846,41.780595]}},{"type":"Feature","properties":{"station_id":"654","name":"Racine Ave & Washington Blvd (*)","totalDocks":"12","latitude":"41.883073","longitude":"-87.656952","city":"Chicago","postalCode":"60607","location":""},"geometry":{"type":"Point","coordinates":[-87.656952,41.883073]}},{"type":"Feature","properties":{"station_id":"655","name":"Hoyne Ave & Balmoral Ave","totalDocks":"15","latitude":"41.979851","longitude":"-87.681932","city":"Chicago","postalCode":"60625","location":""},"geometry":{"type":"Point","coordinates":[-87.681932,41.979851]}},{"type":"Feature","properties":{"station_id":"656","name":"Damen Ave & Walnut (Lake) St (*)","totalDocks":"16","latitude":"41.885951","longitude":"-87.677009","city":"Chicago","postalCode":"60612","location":""},"geometry":{"type":"Point","coordinates":[-87.677009,41.885951]}},{"type":"Feature","properties":{"station_id":"657","name":"Wood St & Augusta Blvd","totalDocks":"15","latitude":"41.899181","longitude":"-87.6722","city":"Chicago","postalCode":"60622","location":""},"geometry":{"type":"Point","coordinates":[-87.6722,41.899181]}},{"type":"Feature","properties":{"station_id":"658","name":"Leavitt St & Division St (*)","totalDocks":"16","latitude":"41.902997","longitude":"-87.683825","city":"Chicago","postalCode":"60622","location":""},"geometry":{"type":"Point","coordinates":[-87.683825,41.902997]}},{"type":"Feature","properties":{"station_id":"659","name":"Leavitt St & Chicago Ave","totalDocks":"15","latitude":"41.895501","longitude":"-87.682017","city":"Chicago","postalCode":"60612","location":""},"geometry":{"type":"Point","coordinates":[-87.682017,41.895501]}},{"type":"Feature","properties":{"station_id":"660","name":"Sheridan Rd & Columbia Ave","totalDocks":"15","latitude":"42.004583","longitude":"-87.661406","city":"Chicago","postalCode":"60626","location":""},"geometry":{"type":"Point","coordinates":[-87.661406,42.004583]}},{"type":"Feature","properties":{"station_id":"661","name":"Evanston Civic Center","totalDocks":"15","latitude":"42.057044","longitude":"-87.686554","city":"Evanston","postalCode":"60201","location":""},"geometry":{"type":"Point","coordinates":[-87.686554,42.057044]}},{"type":"Feature","properties":{"station_id":"662","name":"Dodge Ave & Mulford St","totalDocks":"15","latitude":"42.023463","longitude":"-87.699595","city":"Evanston","postalCode":"60201","location":""},"geometry":{"type":"Point","coordinates":[-87.699595,42.023463]}},{"type":"Feature","properties":{"station_id":"663","name":"Lincolnwood Dr & Central St","totalDocks":"15","latitude":"42.064854","longitude":"-87.715297","city":"Evanston","postalCode":"60201","location":""},"geometry":{"type":"Point","coordinates":[-87.715297,42.064854]}},{"type":"Feature","properties":{"station_id":"664","name":"Leavitt St & Belmont Ave (*)","totalDocks":"16","latitude":"41.939354","longitude":"-87.683282","city":"Chicago","postalCode":"60618","location":""},"geometry":{"type":"Point","coordinates":[-87.683282,41.939354]}},{"type":"Feature","properties":{"station_id":"665","name":"South Chicago Ave & Elliot Ave","totalDocks":"7","latitude":"41.747363","longitude":"-87.580046","city":"Chicago","postalCode":"60617","location":""},"geometry":{"type":"Point","coordinates":[-87.580046,41.747363]}}]}