{"type":"FeatureCollection","features":[{"type":"Feature","properties":{"station_id":"3","name":"Powell St BART Station (Market St at 4th St)","lat":"37.7862","lon":"-122.4052"},"geometry":{"type":"Point","coordinates":[-122.4052,37.7862]}},{"type":"Feature","properties":{"station_id":"4","name":"Cyril Magnin St at Ellis St","lat":"37.7857","lon":"-122.4087"},"geometry":{"type":"Point","coordinates":[-122.4087,37.7857]}},{"type":"Feature","properties":{"station_id":"5","name":"Powell St BART Station (Market St at 5th St)","lat":"37.7839","lon":"-122.4084"},"geometry":{"type":"Point","coordinates":[-122.4084,37.7839]}},{"type":"Feature","properties":{"station_id":"6","name":"The Embarcadero at Sansome St","lat":"37.8048","lon":"-122.4033"},"geometry":{"type":"Point","coordinates":[-122.4033,37.8048]}},{"type":"Feature","properties":{"station_id":"7","name":"Frank H Ogawa Plaza","lat":"37.8046","lon":"-122.2717"},"geometry":{"type":"Point","coordinates":[-122.2717,37.8046]}},{"type":"Feature","properties":{"station_id":"8","name":"The Embarcadero at Vallejo St","lat":"37.8","lon":"-122.3985"},"geometry":{"type":"Point","coordinates":[-122.3985,37.8]}},{"type":"Feature","properties":{"station_id":"9","name":"Broadway at Battery St","lat":"37.7986","lon":"-122.401"},"geometry":{"type":"Point","coordinates":[-122.401,37.7986]}},{"type":"Feature","properties":{"station_id":"10","name":"Washington St at Kearny St","lat":"37.7955","lon":"-122.4046"},"geometry":{"type":"Point","coordinates":[-122.4046,37.7955]}},{"type":"Feature","properties":{"station_id":"11","name":"Davis St at Jackson St","lat":"37.7973","lon":"-122.3984"},"geometry":{"type":"Point","coordinates":[-122.3984,37.7973]}},{"type":"Feature","properties":{"station_id":"12","name":"Pier 1/2 at The Embarcadero","lat":"37.7964","lon":"-122.3946"},"geometry":{"type":"Point","coordinates":[-122.3946,37.7964]}},{"type":"Feature","properties":{"station_id":"13","name":"Commercial St at Montgomery St","lat":"37.7943","lon":"-122.403"},"geometry":{"type":"Point","coordinates":[-122.403,37.7943]}},{"type":"Feature","properties":{"station_id":"14","name":"Clay St at Battery St","lat":"37.7951","lon":"-122.4001"},"geometry":{"type":"Point","coordinates":[-122.4001,37.7951]}},{"type":"Feature","properties":{"station_id":"15","name":"San Francisco Ferry Building (Harry Bridges Plaza)","lat":"37.7953","lon":"-122.3942"},"geometry":{"type":"Point","coordinates":[-122.3942,37.7953]}},{"type":"Feature","properties":{"station_id":"16","name":"Market St at Steuart St","lat":"37.7946","lon":"-122.3949"},"geometry":{"type":"Point","coordinates":[-122.3949,37.7946]}},{"type":"Feature","properties":{"station_id":"17","name":"Embarcadero BART Station (Beale St at Market St)","lat":"37.7926","lon":"-122.3972"},"geometry":{"type":"Point","coordinates":[-122.3972,37.7926]}},{"type":"Feature","properties":{"station_id":"18","name":"Telegraph Ave at Alcatraz Ave","lat":"37.8502","lon":"-122.2602"},"geometry":{"type":"Point","coordinates":[-122.2602,37.8502]}},{"type":"Feature","properties":{"station_id":"19","name":"Post St at Kearny St","lat":"37.7888","lon":"-122.4038"},"geometry":{"type":"Point","coordinates":[-122.4038,37.7888]}},{"type":"Feature","properties":{"station_id":"20","name":"Mechanics Monument Plaza (Market St at Bush St)","lat":"37.7919","lon":"-122.3991"},"geometry":{"type":"Point","coordinates":[-122.3991,37.7919]}},{"type":"Feature","properties":{"station_id":"21","name":"Montgomery St BART Station (Market St at 2nd St)","lat":"37.7905","lon":"-122.4015"},"geometry":{"type":"Point","coordinates":[-122.4015,37.7905]}},{"type":"Feature","properties":{"station_id":"22","name":"Howard St at Beale St","lat":"37.7896","lon":"-122.3944"},"geometry":{"type":"Point","coordinates":[-122.3944,37.7896]}},{"type":"Feature","properties":{"station_id":"23","name":"The Embarcadero at Steuart St","lat":"37.7913","lon":"-122.391"},"geometry":{"type":"Point","coordinates":[-122.391,37.7913]}},{"type":"Feature","properties":{"station_id":"24","name":"Spear St at Folsom St","lat":"37.7898","lon":"-122.3908"},"geometry":{"type":"Point","coordinates":[-122.3908,37.7898]}},{"type":"Feature","properties":{"station_id":"25","name":"Howard St at 2nd St","lat":"37.787","lon":"-122.3981"},"geometry":{"type":"Point","coordinates":[-122.3981,37.787]}},{"type":"Feature","properties":{"station_id":"26","name":"1st St at Folsom St","lat":"37.7872","lon":"-122.3942"},"geometry":{"type":"Point","coordinates":[-122.3942,37.7872]}},{"type":"Feature","properties":{"station_id":"27","name":"Beale St at Harrison St","lat":"37.7877","lon":"-122.392"},"geometry":{"type":"Point","coordinates":[-122.392,37.7877]}},{"type":"Feature","properties":{"station_id":"28","name":"The Embarcadero at Bryant St","lat":"37.7873","lon":"-122.3881"},"geometry":{"type":"Point","coordinates":[-122.3881,37.7873]}},{"type":"Feature","properties":{"station_id":"29","name":"O'Farrell St at Divisadero St","lat":"37.7824","lon":"-122.4396"},"geometry":{"type":"Point","coordinates":[-122.4396,37.7824]}},{"type":"Feature","properties":{"station_id":"30","name":"San Francisco Caltrain (Townsend St at 4th St)","lat":"37.7767","lon":"-122.3954"},"geometry":{"type":"Point","coordinates":[-122.3954,37.7767]}},{"type":"Feature","properties":{"station_id":"31","name":"Raymond Kimbell Playground","lat":"37.7837","lon":"-122.4345"},"geometry":{"type":"Point","coordinates":[-122.4345,37.7837]}},{"type":"Feature","properties":{"station_id":"33","name":"Golden Gate Ave at Hyde St","lat":"37.7817","lon":"-122.4153"},"geometry":{"type":"Point","coordinates":[-122.4153,37.7817]}},{"type":"Feature","properties":{"station_id":"34","name":"Father Alfred E Boeddeker Park","lat":"37.7841","lon":"-122.4119"},"geometry":{"type":"Point","coordinates":[-122.4119,37.7841]}},{"type":"Feature","properties":{"station_id":"35","name":"Cahill Park","lat":"37.3291","lon":"-121.9048"},"geometry":{"type":"Point","coordinates":[-121.9048,37.3291]}},{"type":"Feature","properties":{"station_id":"36","name":"Folsom St at 3rd St","lat":"37.7839","lon":"-122.3988"},"geometry":{"type":"Point","coordinates":[-122.3988,37.7839]}},{"type":"Feature","properties":{"station_id":"37","name":"Folsom St at 2nd St","lat":"37.7857","lon":"-122.3969"},"geometry":{"type":"Point","coordinates":[-122.3969,37.7857]}},{"type":"Feature","properties":{"station_id":"38","name":"The Embarcadero at Pier 38","lat":"37.7832","lon":"-122.388"},"geometry":{"type":"Point","coordinates":[-122.388,37.7832]}},{"type":"Feature","properties":{"station_id":"39","name":"Scott St at Golden Gate Ave","lat":"37.7791","lon":"-122.437"},"geometry":{"type":"Point","coordinates":[-122.437,37.7791]}},{"type":"Feature","properties":{"station_id":"41","name":"Golden Gate Ave at Polk St","lat":"37.7817","lon":"-122.4184"},"geometry":{"type":"Point","coordinates":[-122.4184,37.7817]}},{"type":"Feature","properties":{"station_id":"42","name":"San Francisco City Hall (Polk St at Grove St)","lat":"37.7788","lon":"-122.4181"},"geometry":{"type":"Point","coordinates":[-122.4181,37.7788]}},{"type":"Feature","properties":{"station_id":"43","name":"San Francisco Public Library (Grove St at Hyde St)","lat":"37.7787","lon":"-122.416"},"geometry":{"type":"Point","coordinates":[-122.416,37.7787]}},{"type":"Feature","properties":{"station_id":"44","name":"Civic Center/UN Plaza BART Station (Market St at McAllister St)","lat":"37.7811","lon":"-122.4119"},"geometry":{"type":"Point","coordinates":[-122.4119,37.7811]}},{"type":"Feature","properties":{"station_id":"46","name":"San Antonio Park","lat":"37.7901","lon":"-122.2424"},"geometry":{"type":"Point","coordinates":[-122.2424,37.7901]}},{"type":"Feature","properties":{"station_id":"47","name":"Clara St at 4th St","lat":"37.7808","lon":"-122.4006"},"geometry":{"type":"Point","coordinates":[-122.4006,37.7808]}},{"type":"Feature","properties":{"station_id":"49","name":"S Park St at 3rd St","lat":"37.7809","lon":"-122.3948"},"geometry":{"type":"Point","coordinates":[-122.3948,37.7809]}},{"type":"Feature","properties":{"station_id":"50","name":"2nd St at Townsend St","lat":"37.7805","lon":"-122.3904"},"geometry":{"type":"Point","coordinates":[-122.3904,37.7805]}},{"type":"Feature","properties":{"station_id":"51","name":"Parker Ave at McAllister St","lat":"37.7762","lon":"-122.4531"},"geometry":{"type":"Point","coordinates":[-122.4531,37.7762]}},{"type":"Feature","properties":{"station_id":"52","name":"McAllister St at Baker St","lat":"37.7773","lon":"-122.4418"},"geometry":{"type":"Point","coordinates":[-122.4418,37.7773]}},{"type":"Feature","properties":{"station_id":"53","name":"Grove St at Divisadero","lat":"37.776","lon":"-122.4377"},"geometry":{"type":"Point","coordinates":[-122.4377,37.776]}},{"type":"Feature","properties":{"station_id":"54","name":"Alamo Square (Steiner St at Fulton St)","lat":"37.7777","lon":"-122.4331"},"geometry":{"type":"Point","coordinates":[-122.4331,37.7777]}},{"type":"Feature","properties":{"station_id":"55","name":"Webster St at Grove St","lat":"37.7772","lon":"-122.4296"},"geometry":{"type":"Point","coordinates":[-122.4296,37.7772]}},{"type":"Feature","properties":{"station_id":"56","name":"Koshland Park","lat":"37.7735","lon":"-122.4272"},"geometry":{"type":"Point","coordinates":[-122.4272,37.7735]}},{"type":"Feature","properties":{"station_id":"58","name":"Market St at 10th St","lat":"37.7769","lon":"-122.4174"},"geometry":{"type":"Point","coordinates":[-122.4174,37.7769]}},{"type":"Feature","properties":{"station_id":"59","name":"S Van Ness Ave at Market St","lat":"37.7748","lon":"-122.4191"},"geometry":{"type":"Point","coordinates":[-122.4191,37.7748]}},{"type":"Feature","properties":{"station_id":"60","name":"8th St at Ringold St","lat":"37.7744","lon":"-122.4094"},"geometry":{"type":"Point","coordinates":[-122.4094,37.7744]}},{"type":"Feature","properties":{"station_id":"61","name":"Howard St at 8th St","lat":"37.7767","lon":"-122.4109"},"geometry":{"type":"Point","coordinates":[-122.4109,37.7767]}},{"type":"Feature","properties":{"station_id":"62","name":"Victoria Manalo Draves Park","lat":"37.7777","lon":"-122.4062"},"geometry":{"type":"Point","coordinates":[-122.4062,37.7777]}},{"type":"Feature","properties":{"station_id":"63","name":"Bryant St at 6th St","lat":"37.7759","lon":"-122.4026"},"geometry":{"type":"Point","coordinates":[-122.4026,37.7759]}},{"type":"Feature","properties":{"station_id":"65","name":"Emeryville Depot","lat":"37.8303","lon":"-122.2894"},"geometry":{"type":"Point","coordinates":[-122.2894,37.8303]}},{"type":"Feature","properties":{"station_id":"66","name":"3rd St at Townsend St","lat":"37.7785","lon":"-122.3924"},"geometry":{"type":"Point","coordinates":[-122.3924,37.7785]}},{"type":"Feature","properties":{"station_id":"70","name":"Central Ave at Fell St","lat":"37.7735","lon":"-122.4442"},"geometry":{"type":"Point","coordinates":[-122.4442,37.7735]}},{"type":"Feature","properties":{"station_id":"71","name":"Broderick St at Oak St","lat":"37.7732","lon":"-122.4392"},"geometry":{"type":"Point","coordinates":[-122.4392,37.7732]}},{"type":"Feature","properties":{"station_id":"72","name":"Page St at Scott St","lat":"37.7724","lon":"-122.4359"},"geometry":{"type":"Point","coordinates":[-122.4359,37.7724]}},{"type":"Feature","properties":{"station_id":"73","name":"Pierce St at Haight St","lat":"37.7718","lon":"-122.4337"},"geometry":{"type":"Point","coordinates":[-122.4337,37.7718]}},{"type":"Feature","properties":{"station_id":"74","name":"Laguna St at Hayes St","lat":"37.7761","lon":"-122.4262"},"geometry":{"type":"Point","coordinates":[-122.4262,37.7761]}},{"type":"Feature","properties":{"station_id":"75","name":"Market St at Franklin St","lat":"37.7738","lon":"-122.4211"},"geometry":{"type":"Point","coordinates":[-122.4211,37.7738]}},{"type":"Feature","properties":{"station_id":"76","name":"McCoppin St at Valencia St","lat":"37.7717","lon":"-122.4223"},"geometry":{"type":"Point","coordinates":[-122.4223,37.7717]}},{"type":"Feature","properties":{"station_id":"77","name":"11th St at Natoma St","lat":"37.7735","lon":"-122.416"},"geometry":{"type":"Point","coordinates":[-122.416,37.7735]}},{"type":"Feature","properties":{"station_id":"78","name":"Folsom St at 9th St","lat":"37.7736","lon":"-122.4118"},"geometry":{"type":"Point","coordinates":[-122.4118,37.7736]}},{"type":"Feature","properties":{"station_id":"79","name":"7th St at Brannan St","lat":"37.7734","lon":"-122.4036"},"geometry":{"type":"Point","coordinates":[-122.4036,37.7734]}},{"type":"Feature","properties":{"station_id":"80","name":"Townsend St at 5th St","lat":"37.7751","lon":"-122.3976"},"geometry":{"type":"Point","coordinates":[-122.3976,37.7751]}},{"type":"Feature","properties":{"station_id":"81","name":"Berry St at 4th St","lat":"37.7761","lon":"-122.393"},"geometry":{"type":"Point","coordinates":[-122.393,37.7761]}},{"type":"Feature","properties":{"station_id":"84","name":"Duboce Park","lat":"37.7692","lon":"-122.4341"},"geometry":{"type":"Point","coordinates":[-122.4341,37.7692]}},{"type":"Feature","properties":{"station_id":"85","name":"Church St at Duboce Ave","lat":"37.7698","lon":"-122.4291"},"geometry":{"type":"Point","coordinates":[-122.4291,37.7698]}},{"type":"Feature","properties":{"station_id":"86","name":"Market St at Dolores St","lat":"37.7693","lon":"-122.4269"},"geometry":{"type":"Point","coordinates":[-122.4269,37.7693]}},{"type":"Feature","properties":{"station_id":"87","name":"Folsom St at 13th St","lat":"37.7703","lon":"-122.4154"},"geometry":{"type":"Point","coordinates":[-122.4154,37.7703]}},{"type":"Feature","properties":{"station_id":"88","name":"11th St at Bryant St","lat":"37.7701","lon":"-122.4119"},"geometry":{"type":"Point","coordinates":[-122.4119,37.7701]}},{"type":"Feature","properties":{"station_id":"90","name":"Townsend St at 7th St","lat":"37.7711","lon":"-122.4028"},"geometry":{"type":"Point","coordinates":[-122.4028,37.7711]}},{"type":"Feature","properties":{"station_id":"91","name":"Berry St at King St","lat":"37.7719","lon":"-122.3983"},"geometry":{"type":"Point","coordinates":[-122.3983,37.7719]}},{"type":"Feature","properties":{"station_id":"92","name":"Mission Bay Kids Park","lat":"37.7754","lon":"-122.3928"},"geometry":{"type":"Point","coordinates":[-122.3928,37.7754]}},{"type":"Feature","properties":{"station_id":"93","name":"4th St at Mission Bay Blvd S","lat":"37.7701","lon":"-122.3912"},"geometry":{"type":"Point","coordinates":[-122.3912,37.7701]}},{"type":"Feature","properties":{"station_id":"95","name":"Sanchez St at 15th St","lat":"37.7662","lon":"-122.4311"},"geometry":{"type":"Point","coordinates":[-122.4311,37.7662]}},{"type":"Feature","properties":{"station_id":"96","name":"Dolores St at 15th St","lat":"37.7661","lon":"-122.4267"},"geometry":{"type":"Point","coordinates":[-122.4267,37.7661]}},{"type":"Feature","properties":{"station_id":"97","name":"14th St at Mission St","lat":"37.7682","lon":"-122.4204"},"geometry":{"type":"Point","coordinates":[-122.4204,37.7682]}},{"type":"Feature","properties":{"station_id":"98","name":"Valencia St at 16th St","lat":"37.7651","lon":"-122.4219"},"geometry":{"type":"Point","coordinates":[-122.4219,37.7651]}},{"type":"Feature","properties":{"station_id":"99","name":"Folsom St at 15th St","lat":"37.7672","lon":"-122.4155"},"geometry":{"type":"Point","coordinates":[-122.4155,37.7672]}},{"type":"Feature","properties":{"station_id":"100","name":"Bryant St at 15th St","lat":"37.7672","lon":"-122.4107"},"geometry":{"type":"Point","coordinates":[-122.4107,37.7672]}},{"type":"Feature","properties":{"station_id":"101","name":"15th St at Potrero Ave","lat":"37.7671","lon":"-122.4074"},"geometry":{"type":"Point","coordinates":[-122.4074,37.7671]}},{"type":"Feature","properties":{"station_id":"102","name":"Irwin St at 8th St","lat":"37.7668","lon":"-122.3996"},"geometry":{"type":"Point","coordinates":[-122.3996,37.7668]}},{"type":"Feature","properties":{"station_id":"104","name":"4th St at 16th St","lat":"37.7671","lon":"-122.3905"},"geometry":{"type":"Point","coordinates":[-122.3905,37.7671]}},{"type":"Feature","properties":{"station_id":"105","name":"16th St at Prosper St","lat":"37.7643","lon":"-122.4319"},"geometry":{"type":"Point","coordinates":[-122.4319,37.7643]}},{"type":"Feature","properties":{"station_id":"106","name":"Sanchez St at 17th St","lat":"37.7633","lon":"-122.4307"},"geometry":{"type":"Point","coordinates":[-122.4307,37.7633]}},{"type":"Feature","properties":{"station_id":"107","name":"17th St at Dolores St","lat":"37.7631","lon":"-122.4266"},"geometry":{"type":"Point","coordinates":[-122.4266,37.7631]}},{"type":"Feature","properties":{"station_id":"108","name":"16th St Mission BART","lat":"37.7647","lon":"-122.4199"},"geometry":{"type":"Point","coordinates":[-122.4199,37.7647]}},{"type":"Feature","properties":{"station_id":"109","name":"17th St at Valencia St","lat":"37.7633","lon":"-122.422"},"geometry":{"type":"Point","coordinates":[-122.422,37.7633]}},{"type":"Feature","properties":{"station_id":"110","name":"17th & Folsom Street Park (17th St at Folsom St)","lat":"37.7637","lon":"-122.4155"},"geometry":{"type":"Point","coordinates":[-122.4155,37.7637]}},{"type":"Feature","properties":{"station_id":"112","name":"Harrison St at 17th St","lat":"37.7638","lon":"-122.413"},"geometry":{"type":"Point","coordinates":[-122.413,37.7638]}},{"type":"Feature","properties":{"station_id":"114","name":"Rhode Island St at 17th St","lat":"37.7644","lon":"-122.4026"},"geometry":{"type":"Point","coordinates":[-122.4026,37.7644]}},{"type":"Feature","properties":{"station_id":"115","name":"Jackson Playground","lat":"37.765","lon":"-122.3991"},"geometry":{"type":"Point","coordinates":[-122.3991,37.765]}},{"type":"Feature","properties":{"station_id":"116","name":"Mississippi St at 17th St","lat":"37.7648","lon":"-122.3948"},"geometry":{"type":"Point","coordinates":[-122.3948,37.7648]}},{"type":"Feature","properties":{"station_id":"118","name":"Eureka Valley Recreation Center","lat":"37.7592","lon":"-122.4368"},"geometry":{"type":"Point","coordinates":[-122.4368,37.7592]}},{"type":"Feature","properties":{"station_id":"119","name":"18th St at Noe St","lat":"37.7611","lon":"-122.4324"},"geometry":{"type":"Point","coordinates":[-122.4324,37.7611]}},{"type":"Feature","properties":{"station_id":"120","name":"Mission Dolores Park","lat":"37.7614","lon":"-122.4267"},"geometry":{"type":"Point","coordinates":[-122.4267,37.7614]}},{"type":"Feature","properties":{"station_id":"121","name":"Mission Playground","lat":"37.7594","lon":"-122.4214"},"geometry":{"type":"Point","coordinates":[-122.4214,37.7594]}},{"type":"Feature","properties":{"station_id":"122","name":"19th St at Mission St","lat":"37.7603","lon":"-122.4189"},"geometry":{"type":"Point","coordinates":[-122.4189,37.7603]}},{"type":"Feature","properties":{"station_id":"123","name":"Folsom St at 19th St","lat":"37.7606","lon":"-122.4149"},"geometry":{"type":"Point","coordinates":[-122.4149,37.7606]}},{"type":"Feature","properties":{"station_id":"124","name":"19th St at Florida St","lat":"37.7605","lon":"-122.4108"},"geometry":{"type":"Point","coordinates":[-122.4108,37.7605]}},{"type":"Feature","properties":{"station_id":"125","name":"20th St at Bryant St","lat":"37.7592","lon":"-122.4101"},"geometry":{"type":"Point","coordinates":[-122.4101,37.7592]}},{"type":"Feature","properties":{"station_id":"126","name":"Esprit Park","lat":"37.7617","lon":"-122.3908"},"geometry":{"type":"Point","coordinates":[-122.3908,37.7617]}},{"type":"Feature","properties":{"station_id":"127","name":"Valencia St at 21st St","lat":"37.7567","lon":"-122.4212"},"geometry":{"type":"Point","coordinates":[-122.4212,37.7567]}},{"type":"Feature","properties":{"station_id":"129","name":"Harrison St at 20th St","lat":"37.7589","lon":"-122.4125"},"geometry":{"type":"Point","coordinates":[-122.4125,37.7589]}},{"type":"Feature","properties":{"station_id":"130","name":"22nd St Caltrain Station","lat":"37.7578","lon":"-122.3918"},"geometry":{"type":"Point","coordinates":[-122.3918,37.7578]}},{"type":"Feature","properties":{"station_id":"131","name":"22nd St at Dolores St","lat":"37.755","lon":"-122.4258"},"geometry":{"type":"Point","coordinates":[-122.4258,37.755]}},{"type":"Feature","properties":{"station_id":"132","name":"24th St at Chattanooga St","lat":"37.7518","lon":"-122.4266"},"geometry":{"type":"Point","coordinates":[-122.4266,37.7518]}},{"type":"Feature","properties":{"station_id":"133","name":"Valencia St at 22nd St","lat":"37.7552","lon":"-122.4209"},"geometry":{"type":"Point","coordinates":[-122.4209,37.7552]}},{"type":"Feature","properties":{"station_id":"134","name":"Valencia St at 24th St","lat":"37.7524","lon":"-122.4206"},"geometry":{"type":"Point","coordinates":[-122.4206,37.7524]}},{"type":"Feature","properties":{"station_id":"137","name":"Jersey St at Castro St","lat":"37.7505","lon":"-122.4337"},"geometry":{"type":"Point","coordinates":[-122.4337,37.7505]}},{"type":"Feature","properties":{"station_id":"138","name":"Jersey St at Church St","lat":"37.7509","lon":"-122.4277"},"geometry":{"type":"Point","coordinates":[-122.4277,37.7509]}},{"type":"Feature","properties":{"station_id":"139","name":"Garfield Square (25th St at Harrison St)","lat":"37.751","lon":"-122.412"},"geometry":{"type":"Point","coordinates":[-122.412,37.751]}},{"type":"Feature","properties":{"station_id":"140","name":"Cesar Chavez St at Dolores St","lat":"37.7478","lon":"-122.4251"},"geometry":{"type":"Point","coordinates":[-122.4251,37.7478]}},{"type":"Feature","properties":{"station_id":"141","name":"Valencia St at Cesar Chavez St","lat":"37.7477","lon":"-122.4202"},"geometry":{"type":"Point","coordinates":[-122.4202,37.7477]}},{"type":"Feature","properties":{"station_id":"142","name":"Guerrero Park","lat":"37.7458","lon":"-122.4222"},"geometry":{"type":"Point","coordinates":[-122.4222,37.7458]}},{"type":"Feature","properties":{"station_id":"144","name":"Precita Park","lat":"37.7473","lon":"-122.4114"},"geometry":{"type":"Point","coordinates":[-122.4114,37.7473]}},{"type":"Feature","properties":{"station_id":"145","name":"29th St at Church St","lat":"37.7438","lon":"-122.427"},"geometry":{"type":"Point","coordinates":[-122.427,37.7438]}},{"type":"Feature","properties":{"station_id":"146","name":"30th St at San Jose Ave","lat":"37.7423","lon":"-122.4229"},"geometry":{"type":"Point","coordinates":[-122.4229,37.7423]}},{"type":"Feature","properties":{"station_id":"147","name":"29th St at Tiffany Ave","lat":"37.7441","lon":"-122.4215"},"geometry":{"type":"Point","coordinates":[-122.4215,37.7441]}},{"type":"Feature","properties":{"station_id":"148","name":"Horton St at 40th St","lat":"37.8297","lon":"-122.2876"},"geometry":{"type":"Point","coordinates":[-122.2876,37.8297]}},{"type":"Feature","properties":{"station_id":"149","name":"Emeryville Town Hall","lat":"37.8313","lon":"-122.2856"},"geometry":{"type":"Point","coordinates":[-122.2856,37.8313]}},{"type":"Feature","properties":{"station_id":"150","name":"Adeline St at 40th St","lat":"37.8313","lon":"-122.2783"},"geometry":{"type":"Point","coordinates":[-122.2783,37.8313]}},{"type":"Feature","properties":{"station_id":"151","name":"53rd St at Hollis St","lat":"37.8362","lon":"-122.2872"},"geometry":{"type":"Point","coordinates":[-122.2872,37.8362]}},{"type":"Feature","properties":{"station_id":"152","name":"47th St at San Pablo Ave","lat":"37.8356","lon":"-122.2811"},"geometry":{"type":"Point","coordinates":[-122.2811,37.8356]}},{"type":"Feature","properties":{"station_id":"153","name":"59th St at Horton St","lat":"37.8409","lon":"-122.2914"},"geometry":{"type":"Point","coordinates":[-122.2914,37.8409]}},{"type":"Feature","properties":{"station_id":"154","name":"Doyle St at 59th St","lat":"37.8419","lon":"-122.288"},"geometry":{"type":"Point","coordinates":[-122.288,37.8419]}},{"type":"Feature","properties":{"station_id":"155","name":"Emeryville Public Market","lat":"37.8405","lon":"-122.2935"},"geometry":{"type":"Point","coordinates":[-122.2935,37.8405]}},{"type":"Feature","properties":{"station_id":"156","name":"Stanford Ave at Hollis St","lat":"37.8384","lon":"-122.2887"},"geometry":{"type":"Point","coordinates":[-122.2887,37.8384]}},{"type":"Feature","properties":{"station_id":"157","name":"65th St at Hollis St","lat":"37.8468","lon":"-122.2914"},"geometry":{"type":"Point","coordinates":[-122.2914,37.8468]}},{"type":"Feature","properties":{"station_id":"158","name":"Shattuck Ave at Telegraph Ave","lat":"37.8333","lon":"-122.2635"},"geometry":{"type":"Point","coordinates":[-122.2635,37.8333]}},{"type":"Feature","properties":{"station_id":"159","name":"24th St at Market St","lat":"37.8161","lon":"-122.2782"},"geometry":{"type":"Point","coordinates":[-122.2782,37.8161]}},{"type":"Feature","properties":{"station_id":"160","name":"West Oakland BART Station","lat":"37.8053","lon":"-122.2948"},"geometry":{"type":"Point","coordinates":[-122.2948,37.8053]}},{"type":"Feature","properties":{"station_id":"162","name":"Franklin St at 9th St","lat":"37.8005","lon":"-122.2721"},"geometry":{"type":"Point","coordinates":[-122.2721,37.8005]}},{"type":"Feature","properties":{"station_id":"163","name":"Lake Merritt BART Station","lat":"37.7973","lon":"-122.2653"},"geometry":{"type":"Point","coordinates":[-122.2653,37.7973]}},{"type":"Feature","properties":{"station_id":"164","name":"Isabella St at San Pablo Ave","lat":"37.815","lon":"-122.2748"},"geometry":{"type":"Point","coordinates":[-122.2748,37.815]}},{"type":"Feature","properties":{"station_id":"166","name":"College Ave at Alcatraz Ave","lat":"37.8514","lon":"-122.2525"},"geometry":{"type":"Point","coordinates":[-122.2525,37.8514]}},{"type":"Feature","properties":{"station_id":"167","name":"College Ave at Harwood Ave","lat":"37.8482","lon":"-122.2522"},"geometry":{"type":"Point","coordinates":[-122.2522,37.8482]}},{"type":"Feature","properties":{"station_id":"168","name":"Alcatraz Ave at Shattuck Ave","lat":"37.8496","lon":"-122.2656"},"geometry":{"type":"Point","coordinates":[-122.2656,37.8496]}},{"type":"Feature","properties":{"station_id":"169","name":"Bushrod Park","lat":"37.8465","lon":"-122.2653"},"geometry":{"type":"Point","coordinates":[-122.2653,37.8465]}},{"type":"Feature","properties":{"station_id":"170","name":"Telegraph Ave at 58th St","lat":"37.8445","lon":"-122.2614"},"geometry":{"type":"Point","coordinates":[-122.2614,37.8445]}},{"type":"Feature","properties":{"station_id":"171","name":"Rockridge BART Station","lat":"37.8443","lon":"-122.2519"},"geometry":{"type":"Point","coordinates":[-122.2519,37.8443]}},{"type":"Feature","properties":{"station_id":"172","name":"College Ave at Taft Ave","lat":"37.8418","lon":"-122.2515"},"geometry":{"type":"Point","coordinates":[-122.2515,37.8418]}},{"type":"Feature","properties":{"station_id":"173","name":"Shattuck Ave at 55th St","lat":"37.8404","lon":"-122.2645"},"geometry":{"type":"Point","coordinates":[-122.2645,37.8404]}},{"type":"Feature","properties":{"station_id":"174","name":"Shattuck Ave at 51st St","lat":"37.8368","lon":"-122.264"},"geometry":{"type":"Point","coordinates":[-122.264,37.8368]}},{"type":"Feature","properties":{"station_id":"175","name":"49th St at Telegraph Ave","lat":"37.8359","lon":"-122.2624"},"geometry":{"type":"Point","coordinates":[-122.2624,37.8359]}},{"type":"Feature","properties":{"station_id":"176","name":"MacArthur BART Station","lat":"37.8284","lon":"-122.2663"},"geometry":{"type":"Point","coordinates":[-122.2663,37.8284]}},{"type":"Feature","properties":{"station_id":"177","name":"MacArthur Blvd at Telegraph Ave","lat":"37.8263","lon":"-122.2651"},"geometry":{"type":"Point","coordinates":[-122.2651,37.8263]}},{"type":"Feature","properties":{"station_id":"178","name":"Broadway at 30th St","lat":"37.8194","lon":"-122.2619"},"geometry":{"type":"Point","coordinates":[-122.2619,37.8194]}},{"type":"Feature","properties":{"station_id":"179","name":"Telegraph Ave at 27th St","lat":"37.8161","lon":"-122.2679"},"geometry":{"type":"Point","coordinates":[-122.2679,37.8161]}},{"type":"Feature","properties":{"station_id":"180","name":"Telegraph Ave at 23rd St","lat":"37.8127","lon":"-122.2688"},"geometry":{"type":"Point","coordinates":[-122.2688,37.8127]}},{"type":"Feature","properties":{"station_id":"181","name":"Grand Ave at Webster St","lat":"37.8114","lon":"-122.2652"},"geometry":{"type":"Point","coordinates":[-122.2652,37.8114]}},{"type":"Feature","properties":{"station_id":"182","name":"19th Street BART Station","lat":"37.8094","lon":"-122.268"},"geometry":{"type":"Point","coordinates":[-122.268,37.8094]}},{"type":"Feature","properties":{"station_id":"183","name":"Telegraph Ave at 19th St","lat":"37.8087","lon":"-122.2699"},"geometry":{"type":"Point","coordinates":[-122.2699,37.8087]}},{"type":"Feature","properties":{"station_id":"186","name":"Lakeside Dr at 14th St","lat":"37.8013","lon":"-122.2626"},"geometry":{"type":"Point","coordinates":[-122.2626,37.8013]}},{"type":"Feature","properties":{"station_id":"187","name":"Jack London Square","lat":"37.7962","lon":"-122.2794"},"geometry":{"type":"Point","coordinates":[-122.2794,37.7962]}},{"type":"Feature","properties":{"station_id":"188","name":"Dover St at 57th St","lat":"37.8426","lon":"-122.2677"},"geometry":{"type":"Point","coordinates":[-122.2677,37.8426]}},{"type":"Feature","properties":{"station_id":"189","name":"Genoa St at 55th St","lat":"37.8396","lon":"-122.2718"},"geometry":{"type":"Point","coordinates":[-122.2718,37.8396]}},{"type":"Feature","properties":{"station_id":"190","name":"West St at 40th St","lat":"37.8302","lon":"-122.271"},"geometry":{"type":"Point","coordinates":[-122.271,37.8302]}},{"type":"Feature","properties":{"station_id":"191","name":"Market St at 40th St","lat":"37.8305","lon":"-122.2739"},"geometry":{"type":"Point","coordinates":[-122.2739,37.8305]}},{"type":"Feature","properties":{"station_id":"192","name":"37th St at West St","lat":"37.8267","lon":"-122.2718"},"geometry":{"type":"Point","coordinates":[-122.2718,37.8267]}},{"type":"Feature","properties":{"station_id":"193","name":"Grand Ave at Santa Clara Ave","lat":"37.8127","lon":"-122.2472"},"geometry":{"type":"Point","coordinates":[-122.2472,37.8127]}},{"type":"Feature","properties":{"station_id":"194","name":"Lakeshore Ave at Trestle Glen Rd","lat":"37.8111","lon":"-122.2433"},"geometry":{"type":"Point","coordinates":[-122.2433,37.8111]}},{"type":"Feature","properties":{"station_id":"195","name":"Bay Pl at Vernon St","lat":"37.8123","lon":"-122.2608"},"geometry":{"type":"Point","coordinates":[-122.2608,37.8123]}},{"type":"Feature","properties":{"station_id":"196","name":"Grand Ave at Perkins St","lat":"37.8089","lon":"-122.2565"},"geometry":{"type":"Point","coordinates":[-122.2565,37.8089]}},{"type":"Feature","properties":{"station_id":"197","name":"El Embarcadero at Grand Ave","lat":"37.8088","lon":"-122.2497"},"geometry":{"type":"Point","coordinates":[-122.2497,37.8088]}},{"type":"Feature","properties":{"station_id":"198","name":"Snow Park","lat":"37.8078","lon":"-122.2645"},"geometry":{"type":"Point","coordinates":[-122.2645,37.8078]}},{"type":"Feature","properties":{"station_id":"200","name":"2nd Ave at E 18th St","lat":"37.8002","lon":"-122.2538"},"geometry":{"type":"Point","coordinates":[-122.2538,37.8002]}},{"type":"Feature","properties":{"station_id":"201","name":"10th St at Fallon St","lat":"37.7977","lon":"-122.263"},"geometry":{"type":"Point","coordinates":[-122.263,37.7977]}},{"type":"Feature","properties":{"station_id":"202","name":"Washington St at 8th St","lat":"37.8008","lon":"-122.2749"},"geometry":{"type":"Point","coordinates":[-122.2749,37.8008]}},{"type":"Feature","properties":{"station_id":"203","name":"Webster St at 2nd St","lat":"37.7952","lon":"-122.274"},"geometry":{"type":"Point","coordinates":[-122.274,37.7952]}},{"type":"Feature","properties":{"station_id":"204","name":"55th St at Telegraph Ave","lat":"37.8402","lon":"-122.2618"},"geometry":{"type":"Point","coordinates":[-122.2618,37.8402]}},{"type":"Feature","properties":{"station_id":"205","name":"Miles Ave at Cavour St","lat":"37.8388","lon":"-122.2587"},"geometry":{"type":"Point","coordinates":[-122.2587,37.8388]}},{"type":"Feature","properties":{"station_id":"206","name":"College Ave at Bryant Ave","lat":"37.8381","lon":"-122.2513"},"geometry":{"type":"Point","coordinates":[-122.2513,37.8381]}},{"type":"Feature","properties":{"station_id":"207","name":"Broadway at Coronado Ave","lat":"37.8358","lon":"-122.2516"},"geometry":{"type":"Point","coordinates":[-122.2516,37.8358]}},{"type":"Feature","properties":{"station_id":"208","name":"4th St at San Carlos St","lat":"37.3328","lon":"-121.8839"},"geometry":{"type":"Point","coordinates":[-121.8839,37.3328]}},{"type":"Feature","properties":{"station_id":"209","name":"45th St at MLK Jr Way","lat":"37.8336","lon":"-122.2674"},"geometry":{"type":"Point","coordinates":[-122.2674,37.8336]}},{"type":"Feature","properties":{"station_id":"210","name":"45th St at Manila","lat":"37.8333","lon":"-122.2562"},"geometry":{"type":"Point","coordinates":[-122.2562,37.8333]}},{"type":"Feature","properties":{"station_id":"211","name":"Broadway at 40th St","lat":"37.8278","lon":"-122.2567"},"geometry":{"type":"Point","coordinates":[-122.2567,37.8278]}},{"type":"Feature","properties":{"station_id":"212","name":"Mosswood Park","lat":"37.8249","lon":"-122.2604"},"geometry":{"type":"Point","coordinates":[-122.2604,37.8249]}},{"type":"Feature","properties":{"station_id":"214","name":"Market St at Brockhurst St","lat":"37.8233","lon":"-122.2757"},"geometry":{"type":"Point","coordinates":[-122.2757,37.8233]}},{"type":"Feature","properties":{"station_id":"215","name":"34th St at Telegraph Ave","lat":"37.8225","lon":"-122.2663"},"geometry":{"type":"Point","coordinates":[-122.2663,37.8225]}},{"type":"Feature","properties":{"station_id":"216","name":"San Pablo Ave at 27th St","lat":"37.8178","lon":"-122.2757"},"geometry":{"type":"Point","coordinates":[-122.2757,37.8178]}},{"type":"Feature","properties":{"station_id":"217","name":"27th St at MLK Jr Way","lat":"37.817","lon":"-122.2718"},"geometry":{"type":"Point","coordinates":[-122.2718,37.817]}},{"type":"Feature","properties":{"station_id":"220","name":"San Pablo Ave at MLK Jr Way","lat":"37.8114","lon":"-122.2734"},"geometry":{"type":"Point","coordinates":[-122.2734,37.8114]}},{"type":"Feature","properties":{"station_id":"223","name":"16th St Mission BART Station 2","lat":"37.7649","lon":"-122.4202"},"geometry":{"type":"Point","coordinates":[-122.4202,37.7649]}},{"type":"Feature","properties":{"station_id":"224","name":"21st St at 5th Ave","lat":"37.8005","lon":"-122.2475"},"geometry":{"type":"Point","coordinates":[-122.2475,37.8005]}},{"type":"Feature","properties":{"station_id":"225","name":"23rd Ave at Foothill Blvd","lat":"37.7852","lon":"-122.2344"},"geometry":{"type":"Point","coordinates":[-122.2344,37.7852]}},{"type":"Feature","properties":{"station_id":"227","name":"Foothill Blvd at Fruitvale Ave","lat":"37.7838","lon":"-122.2226"},"geometry":{"type":"Point","coordinates":[-122.2226,37.7838]}},{"type":"Feature","properties":{"station_id":"228","name":"Foothill Blvd at Harrington Ave","lat":"37.7799","lon":"-122.2177"},"geometry":{"type":"Point","coordinates":[-122.2177,37.7799]}},{"type":"Feature","properties":{"station_id":"231","name":"14th St at Filbert St","lat":"37.8087","lon":"-122.2833"},"geometry":{"type":"Point","coordinates":[-122.2833,37.8087]}},{"type":"Feature","properties":{"station_id":"232","name":"MLK Jr Way at 14th St","lat":"37.8062","lon":"-122.276"},"geometry":{"type":"Point","coordinates":[-122.276,37.8062]}},{"type":"Feature","properties":{"station_id":"233","name":"4th Ave at E 12th St (Temporary Location)","lat":"37.7959","lon":"-122.2555"},"geometry":{"type":"Point","coordinates":[-122.2555,37.7959]}},{"type":"Feature","properties":{"station_id":"234","name":"Fruitvale Ave at International Blvd","lat":"37.7781","lon":"-122.2254"},"geometry":{"type":"Point","coordinates":[-122.2254,37.7781]}},{"type":"Feature","properties":{"station_id":"235","name":"Union St at 10th St","lat":"37.8072","lon":"-122.2894"},"geometry":{"type":"Point","coordinates":[-122.2894,37.8072]}},{"type":"Feature","properties":{"station_id":"236","name":"Market St at 8th St","lat":"37.8037","lon":"-122.2825"},"geometry":{"type":"Point","coordinates":[-122.2825,37.8037]}},{"type":"Feature","properties":{"station_id":"237","name":"Fruitvale BART Station","lat":"37.7752","lon":"-122.2245"},"geometry":{"type":"Point","coordinates":[-122.2245,37.7752]}},{"type":"Feature","properties":{"station_id":"238","name":"MLK Jr Way at University Ave","lat":"37.8717","lon":"-122.2731"},"geometry":{"type":"Point","coordinates":[-122.2731,37.8717]}},{"type":"Feature","properties":{"station_id":"239","name":"Bancroft Way at Telegraph Ave","lat":"37.8688","lon":"-122.2588"},"geometry":{"type":"Point","coordinates":[-122.2588,37.8688]}},{"type":"Feature","properties":{"station_id":"240","name":"Haste St at Telegraph Ave","lat":"37.866","lon":"-122.2588"},"geometry":{"type":"Point","coordinates":[-122.2588,37.866]}},{"type":"Feature","properties":{"station_id":"241","name":"Ashby BART Station","lat":"37.8525","lon":"-122.2702"},"geometry":{"type":"Point","coordinates":[-122.2702,37.8525]}},{"type":"Feature","properties":{"station_id":"243","name":"Bancroft Way at College Ave","lat":"37.8694","lon":"-122.2543"},"geometry":{"type":"Point","coordinates":[-122.2543,37.8694]}},{"type":"Feature","properties":{"station_id":"244","name":"Shattuck Ave at Hearst Ave","lat":"37.8737","lon":"-122.2685"},"geometry":{"type":"Point","coordinates":[-122.2685,37.8737]}},{"type":"Feature","properties":{"station_id":"245","name":"Downtown Berkeley BART","lat":"37.8701","lon":"-122.2684"},"geometry":{"type":"Point","coordinates":[-122.2684,37.8701]}},{"type":"Feature","properties":{"station_id":"246","name":"Berkeley Civic Center","lat":"37.8691","lon":"-122.2706"},"geometry":{"type":"Point","coordinates":[-122.2706,37.8691]}},{"type":"Feature","properties":{"station_id":"247","name":"Fulton St at Bancroft Way","lat":"37.8678","lon":"-122.2659"},"geometry":{"type":"Point","coordinates":[-122.2659,37.8678]}},{"type":"Feature","properties":{"station_id":"248","name":"Telegraph Ave at Ashby Ave","lat":"37.856","lon":"-122.2598"},"geometry":{"type":"Point","coordinates":[-122.2598,37.856]}},{"type":"Feature","properties":{"station_id":"249","name":"Russell St at College Ave","lat":"37.8585","lon":"-122.2533"},"geometry":{"type":"Point","coordinates":[-122.2533,37.8585]}},{"type":"Feature","properties":{"station_id":"250","name":"North Berkeley BART Station","lat":"37.8736","lon":"-122.2831"},"geometry":{"type":"Point","coordinates":[-122.2831,37.8736]}},{"type":"Feature","properties":{"station_id":"251","name":"California St at University Ave","lat":"37.8706","lon":"-122.2797"},"geometry":{"type":"Point","coordinates":[-122.2797,37.8706]}},{"type":"Feature","properties":{"station_id":"252","name":"Channing Way at Shattuck Ave","lat":"37.8658","lon":"-122.2674"},"geometry":{"type":"Point","coordinates":[-122.2674,37.8658]}},{"type":"Feature","properties":{"station_id":"253","name":"Haste St at College Ave","lat":"37.8664","lon":"-122.2538"},"geometry":{"type":"Point","coordinates":[-122.2538,37.8664]}},{"type":"Feature","properties":{"station_id":"254","name":"Vine St at Shattuck Ave","lat":"37.8802","lon":"-122.2696"},"geometry":{"type":"Point","coordinates":[-122.2696,37.8802]}},{"type":"Feature","properties":{"station_id":"255","name":"Virginia St at Shattuck Ave","lat":"37.8766","lon":"-122.2695"},"geometry":{"type":"Point","coordinates":[-122.2695,37.8766]}},{"type":"Feature","properties":{"station_id":"256","name":"Hearst Ave at Euclid Ave","lat":"37.8751","lon":"-122.2606"},"geometry":{"type":"Point","coordinates":[-122.2606,37.8751]}},{"type":"Feature","properties":{"station_id":"257","name":"Fifth St at Delaware St","lat":"37.8704","lon":"-122.2997"},"geometry":{"type":"Point","coordinates":[-122.2997,37.8704]}},{"type":"Feature","properties":{"station_id":"258","name":"University Ave at Oxford St","lat":"37.8724","lon":"-122.2664"},"geometry":{"type":"Point","coordinates":[-122.2664,37.8724]}},{"type":"Feature","properties":{"station_id":"259","name":"Addison St at Fourth St","lat":"37.8662","lon":"-122.2994"},"geometry":{"type":"Point","coordinates":[-122.2994,37.8662]}},{"type":"Feature","properties":{"station_id":"262","name":"West St at University Ave","lat":"37.87","lon":"-122.2865"},"geometry":{"type":"Point","coordinates":[-122.2865,37.87]}},{"type":"Feature","properties":{"station_id":"263","name":"Channing Way at San Pablo Ave","lat":"37.8628","lon":"-122.2902"},"geometry":{"type":"Point","coordinates":[-122.2902,37.8628]}},{"type":"Feature","properties":{"station_id":"265","name":"Ninth St at Parker St","lat":"37.8589","lon":"-122.2912"},"geometry":{"type":"Point","coordinates":[-122.2912,37.8589]}},{"type":"Feature","properties":{"station_id":"266","name":"Parker St at Fulton St","lat":"37.8625","lon":"-122.2648"},"geometry":{"type":"Point","coordinates":[-122.2648,37.8625]}},{"type":"Feature","properties":{"station_id":"267","name":"Derby St at College Ave","lat":"37.8618","lon":"-122.2536"},"geometry":{"type":"Point","coordinates":[-122.2536,37.8618]}},{"type":"Feature","properties":{"station_id":"268","name":"Ellsworth St at Russell St","lat":"37.8575","lon":"-122.2616"},"geometry":{"type":"Point","coordinates":[-122.2616,37.8575]}},{"type":"Feature","properties":{"station_id":"269","name":"Telegraph Ave at Carleton St","lat":"37.8623","lon":"-122.2588"},"geometry":{"type":"Point","coordinates":[-122.2588,37.8623]}},{"type":"Feature","properties":{"station_id":"270","name":"Ninth St at Heinz Ave","lat":"37.8539","lon":"-122.2897"},"geometry":{"type":"Point","coordinates":[-122.2897,37.8539]}},{"type":"Feature","properties":{"station_id":"271","name":"San Pablo Park","lat":"37.8558","lon":"-122.2831"},"geometry":{"type":"Point","coordinates":[-122.2831,37.8558]}},{"type":"Feature","properties":{"station_id":"273","name":"Fulton St at Ashby Ave","lat":"37.8556","lon":"-122.2636"},"geometry":{"type":"Point","coordinates":[-122.2636,37.8556]}},{"type":"Feature","properties":{"station_id":"274","name":"Oregon St at Adeline St","lat":"37.8576","lon":"-122.2676"},"geometry":{"type":"Point","coordinates":[-122.2676,37.8576]}},{"type":"Feature","properties":{"station_id":"275","name":"Julian St at 6th St","lat":"37.343","lon":"-121.8889"},"geometry":{"type":"Point","coordinates":[-121.8889,37.343]}},{"type":"Feature","properties":{"station_id":"276","name":"Julian St at The Alameda","lat":"37.3322","lon":"-121.9124"},"geometry":{"type":"Point","coordinates":[-121.9124,37.3322]}},{"type":"Feature","properties":{"station_id":"277","name":"W Julian St at N Morrison St","lat":"37.3337","lon":"-121.9086"},"geometry":{"type":"Point","coordinates":[-121.9086,37.3337]}},{"type":"Feature","properties":{"station_id":"278","name":"The Alameda at Bush St","lat":"37.3319","lon":"-121.905"},"geometry":{"type":"Point","coordinates":[-121.905,37.3319]}},{"type":"Feature","properties":{"station_id":"279","name":"Santa Clara St at 7th St","lat":"37.3391","lon":"-121.8841"},"geometry":{"type":"Point","coordinates":[-121.8841,37.3391]}},{"type":"Feature","properties":{"station_id":"280","name":"San Fernando St at 7th St","lat":"37.3371","lon":"-121.8833"},"geometry":{"type":"Point","coordinates":[-121.8833,37.3371]}},{"type":"Feature","properties":{"station_id":"281","name":"9th St at San Fernando St","lat":"37.3384","lon":"-121.8809"},"geometry":{"type":"Point","coordinates":[-121.8809,37.3384]}},{"type":"Feature","properties":{"station_id":"282","name":"Market St at Park St","lat":"37.3324","lon":"-121.8903"},"geometry":{"type":"Point","coordinates":[-121.8903,37.3324]}},{"type":"Feature","properties":{"station_id":"283","name":"Delmas Ave and San Fernando St","lat":"37.3302","lon":"-121.8976"},"geometry":{"type":"Point","coordinates":[-121.8976,37.3302]}},{"type":"Feature","properties":{"station_id":"284","name":"Yerba Buena Center for the Arts (Howard St at 3rd St)","lat":"37.7848","lon":"-122.4009"},"geometry":{"type":"Point","coordinates":[-122.4009,37.7848]}},{"type":"Feature","properties":{"station_id":"285","name":"Webster St at O'Farrell St","lat":"37.7833","lon":"-122.4311"},"geometry":{"type":"Point","coordinates":[-122.4311,37.7833]}},{"type":"Feature","properties":{"station_id":"286","name":"San Carlos St at 11th St","lat":"37.3364","lon":"-121.8767"},"geometry":{"type":"Point","coordinates":[-121.8767,37.3364]}},{"type":"Feature","properties":{"station_id":"287","name":"Almaden Blvd at Balbach St","lat":"37.3269","lon":"-121.8892"},"geometry":{"type":"Point","coordinates":[-121.8892,37.3269]}},{"type":"Feature","properties":{"station_id":"288","name":"Mission St at 1st St","lat":"37.3509","lon":"-121.9021"},"geometry":{"type":"Point","coordinates":[-121.9021,37.3509]}},{"type":"Feature","properties":{"station_id":"289","name":"5th St at Taylor St","lat":"37.3508","lon":"-121.8958"},"geometry":{"type":"Point","coordinates":[-121.8958,37.3508]}},{"type":"Feature","properties":{"station_id":"290","name":"George St at 1st St","lat":"37.3476","lon":"-121.8997"},"geometry":{"type":"Point","coordinates":[-121.8997,37.3476]}},{"type":"Feature","properties":{"station_id":"291","name":"Autumn Parkway at Coleman Ave","lat":"37.3412","lon":"-121.9033"},"geometry":{"type":"Point","coordinates":[-121.9033,37.3412]}},{"type":"Feature","properties":{"station_id":"292","name":"Empire St at 1st St","lat":"37.345","lon":"-121.8968"},"geometry":{"type":"Point","coordinates":[-121.8968,37.345]}},{"type":"Feature","properties":{"station_id":"294","name":"Pierce Ave at Market St","lat":"37.3275","lon":"-121.8848"},"geometry":{"type":"Point","coordinates":[-121.8848,37.3275]}},{"type":"Feature","properties":{"station_id":"295","name":"William St at 10th St","lat":"37.3329","lon":"-121.8756"},"geometry":{"type":"Point","coordinates":[-121.8756,37.3329]}},{"type":"Feature","properties":{"station_id":"296","name":"5th St at Virginia St","lat":"37.326","lon":"-121.8771"},"geometry":{"type":"Point","coordinates":[-121.8771,37.326]}},{"type":"Feature","properties":{"station_id":"297","name":"Locust St at Grant St","lat":"37.323","lon":"-121.888"},"geometry":{"type":"Point","coordinates":[-121.888,37.323]}},{"type":"Feature","properties":{"station_id":"298","name":"Oak St at 1st St","lat":"37.3222","lon":"-121.8811"},"geometry":{"type":"Point","coordinates":[-121.8811,37.3222]}},{"type":"Feature","properties":{"station_id":"299","name":"Bestor Art Park","lat":"37.3235","lon":"-121.8744"},"geometry":{"type":"Point","coordinates":[-121.8744,37.3235]}},{"type":"Feature","properties":{"station_id":"300","name":"Palm St at Willow St","lat":"37.3172","lon":"-121.8849"},"geometry":{"type":"Point","coordinates":[-121.8849,37.3172]}},{"type":"Feature","properties":{"station_id":"301","name":"Willow St at Vine St","lat":"37.3184","lon":"-121.8832"},"geometry":{"type":"Point","coordinates":[-121.8832,37.3184]}},{"type":"Feature","properties":{"station_id":"303","name":"San Pedro St at Hedding St","lat":"37.3525","lon":"-121.9055"},"geometry":{"type":"Point","coordinates":[-121.9055,37.3525]}},{"type":"Feature","properties":{"station_id":"304","name":"Jackson St at 5th St","lat":"37.3487","lon":"-121.8948"},"geometry":{"type":"Point","coordinates":[-121.8948,37.3487]}},{"type":"Feature","properties":{"station_id":"305","name":"Ryland Park","lat":"37.3428","lon":"-121.8957"},"geometry":{"type":"Point","coordinates":[-121.8957,37.3428]}},{"type":"Feature","properties":{"station_id":"306","name":"Saint James Park","lat":"37.3393","lon":"-121.8899"},"geometry":{"type":"Point","coordinates":[-121.8899,37.3393]}},{"type":"Feature","properties":{"station_id":"307","name":"SAP Center","lat":"37.3329","lon":"-121.9002"},"geometry":{"type":"Point","coordinates":[-121.9002,37.3329]}},{"type":"Feature","properties":{"station_id":"308","name":"San Pedro Square","lat":"37.3369","lon":"-121.8942"},"geometry":{"type":"Point","coordinates":[-121.8942,37.3369]}},{"type":"Feature","properties":{"station_id":"309","name":"San Jose City Hall","lat":"37.3374","lon":"-121.887"},"geometry":{"type":"Point","coordinates":[-121.887,37.3374]}},{"type":"Feature","properties":{"station_id":"310","name":"San Fernando St at 4th St","lat":"37.3359","lon":"-121.8856"},"geometry":{"type":"Point","coordinates":[-121.8856,37.3359]}},{"type":"Feature","properties":{"station_id":"311","name":"Paseo De San Antonio at 2nd St","lat":"37.3338","lon":"-121.8869"},"geometry":{"type":"Point","coordinates":[-121.8869,37.3338]}},{"type":"Feature","properties":{"station_id":"312","name":"San Jose Diridon Station","lat":"37.3298","lon":"-121.9017"},"geometry":{"type":"Point","coordinates":[-121.9017,37.3298]}},{"type":"Feature","properties":{"station_id":"313","name":"Almaden Blvd at San Fernando St","lat":"37.3316","lon":"-121.8932"},"geometry":{"type":"Point","coordinates":[-121.8932,37.3316]}},{"type":"Feature","properties":{"station_id":"314","name":"Santa Clara St at Almaden Blvd","lat":"37.334","lon":"-121.8944"},"geometry":{"type":"Point","coordinates":[-121.8944,37.334]}},{"type":"Feature","properties":{"station_id":"315","name":"Market St at 45th St","lat":"37.8342","lon":"-122.273"},"geometry":{"type":"Point","coordinates":[-122.273,37.8342]}},{"type":"Feature","properties":{"station_id":"316","name":"1st St at San Carlos St","lat":"37.331","lon":"-121.8867"},"geometry":{"type":"Point","coordinates":[-121.8867,37.331]}},{"type":"Feature","properties":{"station_id":"317","name":"San Salvador St at 9th St","lat":"37.3339","lon":"-121.8774"},"geometry":{"type":"Point","coordinates":[-121.8774,37.3339]}},{"type":"Feature","properties":{"station_id":"318","name":"San Carlos St at Market St","lat":"37.3308","lon":"-121.8889"},"geometry":{"type":"Point","coordinates":[-121.8889,37.3308]}},{"type":"Feature","properties":{"station_id":"321","name":"Folsom St at 5th St","lat":"37.7808","lon":"-122.4026"},"geometry":{"type":"Point","coordinates":[-122.4026,37.7808]}},{"type":"Feature","properties":{"station_id":"323","name":"Broadway at Kearny St","lat":"37.7979","lon":"-122.406"},"geometry":{"type":"Point","coordinates":[-122.406,37.7979]}},{"type":"Feature","properties":{"station_id":"324","name":"Union Square (Powell St at Post St)","lat":"37.7886","lon":"-122.4082"},"geometry":{"type":"Point","coordinates":[-122.4082,37.7886]}},{"type":"Feature","properties":{"station_id":"327","name":"5th St at San Salvador St","lat":"37.332","lon":"-121.8816"},"geometry":{"type":"Point","coordinates":[-121.8816,37.332]}},{"type":"Feature","properties":{"station_id":"329","name":"San Jose Depot","lat":"37.344","lon":"-121.9151"},"geometry":{"type":"Point","coordinates":[-121.9151,37.344]}},{"type":"Feature","properties":{"station_id":"336","name":"Potrero Ave and Mariposa St","lat":"37.7634","lon":"-122.4074"},"geometry":{"type":"Point","coordinates":[-122.4074,37.7634]}},{"type":"Feature","properties":{"station_id":"337","name":"Webster St at 19th St","lat":"37.807","lon":"-122.2666"},"geometry":{"type":"Point","coordinates":[-122.2666,37.807]}},{"type":"Feature","properties":{"station_id":"338","name":"13th St at Franklin St","lat":"37.8032","lon":"-122.2706"},"geometry":{"type":"Point","coordinates":[-122.2706,37.8032]}},{"type":"Feature","properties":{"station_id":"339","name":"Jackson St at 11th St","lat":"37.8","lon":"-122.2664"},"geometry":{"type":"Point","coordinates":[-122.2664,37.8]}},{"type":"Feature","properties":{"station_id":"340","name":"Harmon St at Adeline St","lat":"37.8497","lon":"-122.2706"},"geometry":{"type":"Point","coordinates":[-122.2706,37.8497]}},{"type":"Feature","properties":{"station_id":"341","name":"Fountain Alley at S 2nd St","lat":"37.336","lon":"-121.8895"},"geometry":{"type":"Point","coordinates":[-121.8895,37.336]}},{"type":"Feature","properties":{"station_id":"343","name":"Bryant St at 2nd St","lat":"37.7835","lon":"-122.393"},"geometry":{"type":"Point","coordinates":[-122.393,37.7835]}},{"type":"Feature","properties":{"station_id":"344","name":"16th St Depot","lat":"37.7663","lon":"-122.3963"},"geometry":{"type":"Point","coordinates":[-122.3963,37.7663]}},{"type":"Feature","properties":{"station_id":"345","name":"Hubbell St at 16th St","lat":"37.7666","lon":"-122.3981"},"geometry":{"type":"Point","coordinates":[-122.3981,37.7666]}},{"type":"Feature","properties":{"station_id":"349","name":"Howard St at 6th St","lat":"37.7803","lon":"-122.4065"},"geometry":{"type":"Point","coordinates":[-122.4065,37.7803]}},{"type":"Feature","properties":{"station_id":"350","name":"8th St at Brannan St","lat":"37.7714","lon":"-122.4057"},"geometry":{"type":"Point","coordinates":[-122.4057,37.7714]}},{"type":"Feature","properties":{"station_id":"351","name":"10th St at University Ave","lat":"37.8691","lon":"-122.2934"},"geometry":{"type":"Point","coordinates":[-122.2934,37.8691]}},{"type":"Feature","properties":{"station_id":"352","name":"Goettingen St at Bacon St","lat":"37.7273","lon":"-122.4067"},"geometry":{"type":"Point","coordinates":[-122.4067,37.7273]}},{"type":"Feature","properties":{"station_id":"355","name":"23rd St at Tennessee St","lat":"37.7554","lon":"-122.3888"},"geometry":{"type":"Point","coordinates":[-122.3888,37.7554]}},{"type":"Feature","properties":{"station_id":"356","name":"Valencia St at Clinton Park","lat":"37.7692","lon":"-122.4222"},"geometry":{"type":"Point","coordinates":[-122.4222,37.7692]}},{"type":"Feature","properties":{"station_id":"357","name":"2nd St at Julian St","lat":"37.3411","lon":"-121.8928"},"geometry":{"type":"Point","coordinates":[-121.8928,37.3411]}},{"type":"Feature","properties":{"station_id":"358","name":"Williams Ave at 3rd St","lat":"37.7293","lon":"-122.3931"},"geometry":{"type":"Point","coordinates":[-122.3931,37.7293]}},{"type":"Feature","properties":{"station_id":"359","name":"Williams Ave at Apollo St","lat":"37.7301","lon":"-122.3988"},"geometry":{"type":"Point","coordinates":[-122.3988,37.7301]}},{"type":"Feature","properties":{"station_id":"360","name":"Newhall St at 3rd St","lat":"37.7385","lon":"-122.3896"},"geometry":{"type":"Point","coordinates":[-122.3896,37.7385]}},{"type":"Feature","properties":{"station_id":"361","name":"Mendell St at Fairfax Ave","lat":"37.7397","lon":"-122.3857"},"geometry":{"type":"Point","coordinates":[-122.3857,37.7397]}},{"type":"Feature","properties":{"station_id":"362","name":"Lane St at Revere Ave","lat":"37.7318","lon":"-122.39"},"geometry":{"type":"Point","coordinates":[-122.39,37.7318]}},{"type":"Feature","properties":{"station_id":"363","name":"Salesforce Transit Center (Natoma St at 2nd St)","lat":"37.7876","lon":"-122.3981"},"geometry":{"type":"Point","coordinates":[-122.3981,37.7876]}},{"type":"Feature","properties":{"station_id":"364","name":"China Basin St at 3rd St","lat":"37.772","lon":"-122.39"},"geometry":{"type":"Point","coordinates":[-122.39,37.772]}},{"type":"Feature","properties":{"station_id":"365","name":"Turk St at Fillmore St","lat":"37.7805","lon":"-122.432"},"geometry":{"type":"Point","coordinates":[-122.432,37.7805]}},{"type":"Feature","properties":{"station_id":"368","name":"Myrtle St at Polk St","lat":"37.7854","lon":"-122.4196"},"geometry":{"type":"Point","coordinates":[-122.4196,37.7854]}},{"type":"Feature","properties":{"station_id":"369","name":"Hyde St at Post St","lat":"37.7876","lon":"-122.4166"},"geometry":{"type":"Point","coordinates":[-122.4166,37.7876]}},{"type":"Feature","properties":{"station_id":"370","name":"Jones St at Post St","lat":"37.7872","lon":"-122.4135"},"geometry":{"type":"Point","coordinates":[-122.4135,37.7872]}},{"type":"Feature","properties":{"station_id":"371","name":"Lombard St at Columbus Ave","lat":"37.8028","lon":"-122.4132"},"geometry":{"type":"Point","coordinates":[-122.4132,37.8028]}},{"type":"Feature","properties":{"station_id":"372","name":"Madison St at 17th St","lat":"37.804","lon":"-122.2624"},"geometry":{"type":"Point","coordinates":[-122.2624,37.804]}},{"type":"Feature","properties":{"station_id":"373","name":"Potrero del Sol Park (25th St at Utah St)","lat":"37.7518","lon":"-122.4055"},"geometry":{"type":"Point","coordinates":[-122.4055,37.7518]}},{"type":"Feature","properties":{"station_id":"375","name":"Grove St at Masonic Ave","lat":"37.7748","lon":"-122.4466"},"geometry":{"type":"Point","coordinates":[-122.4466,37.7748]}},{"type":"Feature","properties":{"station_id":"376","name":"Illinois St at 20th St","lat":"37.7605","lon":"-122.3875"},"geometry":{"type":"Point","coordinates":[-122.3875,37.7605]}},{"type":"Feature","properties":{"station_id":"377","name":"Fell St at Stanyan St","lat":"37.772","lon":"-122.4537"},"geometry":{"type":"Point","coordinates":[-122.4537,37.772]}},{"type":"Feature","properties":{"station_id":"378","name":"7th St at Empire St","lat":"37.3475","lon":"-121.8904"},"geometry":{"type":"Point","coordinates":[-121.8904,37.3475]}},{"type":"Feature","properties":{"station_id":"380","name":"Masonic Ave at Turk St","lat":"37.7793","lon":"-122.4474"},"geometry":{"type":"Point","coordinates":[-122.4474,37.7793]}},{"type":"Feature","properties":{"station_id":"381","name":"20th St at Dolores St","lat":"37.7582","lon":"-122.4263"},"geometry":{"type":"Point","coordinates":[-122.4263,37.7582]}},{"type":"Feature","properties":{"station_id":"383","name":"Golden Gate Ave at Franklin St","lat":"37.781","lon":"-122.4218"},"geometry":{"type":"Point","coordinates":[-122.4218,37.781]}},{"type":"Feature","properties":{"station_id":"385","name":"Woolsey St at Sacramento St","lat":"37.8506","lon":"-122.2782"},"geometry":{"type":"Point","coordinates":[-122.2782,37.8506]}},{"type":"Feature","properties":{"station_id":"386","name":"24th St at Bartlett St","lat":"37.7522","lon":"-122.42"},"geometry":{"type":"Point","coordinates":[-122.42,37.7522]}},{"type":"Feature","properties":{"station_id":"387","name":"Randall St at Chenery St","lat":"37.7399","lon":"-122.4254"},"geometry":{"type":"Point","coordinates":[-122.4254,37.7399]}},{"type":"Feature","properties":{"station_id":"388","name":"Backesto Park (Jackson St at 13th St)","lat":"37.353","lon":"-121.886"},"geometry":{"type":"Point","coordinates":[-121.886,37.353]}},{"type":"Feature","properties":{"station_id":"389","name":"Taylor St at 9th St","lat":"37.353","lon":"-121.892"},"geometry":{"type":"Point","coordinates":[-121.892,37.353]}},{"type":"Feature","properties":{"station_id":"390","name":"Indiana St at Cesar Chavez St","lat":"37.7504","lon":"-122.3906"},"geometry":{"type":"Point","coordinates":[-122.3906,37.7504]}},{"type":"Feature","properties":{"station_id":"391","name":"1st St at Younger Ave","lat":"37.355","lon":"-121.9046"},"geometry":{"type":"Point","coordinates":[-121.9046,37.355]}},{"type":"Feature","properties":{"station_id":"392","name":"Sonora Ave at 1st St","lat":"37.364","lon":"-121.9119"},"geometry":{"type":"Point","coordinates":[-121.9119,37.364]}},{"type":"Feature","properties":{"station_id":"393","name":"Asbury St at The Alameda","lat":"37.3381","lon":"-121.9193"},"geometry":{"type":"Point","coordinates":[-121.9193,37.3381]}},{"type":"Feature","properties":{"station_id":"394","name":"10th St at Empire St","lat":"37.3495","lon":"-121.8877"},"geometry":{"type":"Point","coordinates":[-121.8877,37.3495]}},{"type":"Feature","properties":{"station_id":"395","name":"Kerley Dr at Rosemary St","lat":"37.361","lon":"-121.907"},"geometry":{"type":"Point","coordinates":[-121.907,37.361]}},{"type":"Feature","properties":{"station_id":"396","name":"Metro Dr at Technology Dr","lat":"37.3681","lon":"-121.9186"},"geometry":{"type":"Point","coordinates":[-121.9186,37.3681]}},{"type":"Feature","properties":{"station_id":"397","name":"Gish Rd at 1st St","lat":"37.3622","lon":"-121.9088"},"geometry":{"type":"Point","coordinates":[-121.9088,37.3622]}},{"type":"Feature","properties":{"station_id":"398","name":"Leavenworth St at Broadway","lat":"37.7963","lon":"-122.4168"},"geometry":{"type":"Point","coordinates":[-122.4168,37.7963]}},{"type":"Feature","properties":{"station_id":"399","name":"Bay St at Fillmore St","lat":"37.8026","lon":"-122.4361"},"geometry":{"type":"Point","coordinates":[-122.4361,37.8026]}},{"type":"Feature","properties":{"station_id":"400","name":"Buchanan St at North Point St","lat":"37.8045","lon":"-122.4335"},"geometry":{"type":"Point","coordinates":[-122.4335,37.8045]}},{"type":"Feature","properties":{"station_id":"401","name":"Skyport Dr at Technology Dr","lat":"37.3654","lon":"-121.9165"},"geometry":{"type":"Point","coordinates":[-121.9165,37.3654]}},{"type":"Feature","properties":{"station_id":"402","name":"Raymond Bernal Jr Memorial Park (8th St at Hedding St)","lat":"37.3566","lon":"-121.8958"},"geometry":{"type":"Point","coordinates":[-121.8958,37.3566]}},{"type":"Feature","properties":{"station_id":"403","name":"10th St at Mission St","lat":"37.3554","lon":"-121.8921"},"geometry":{"type":"Point","coordinates":[-121.8921,37.3554]}},{"type":"Feature","properties":{"station_id":"404","name":"21st St at Santa Clara St","lat":"37.3458","lon":"-121.8709"},"geometry":{"type":"Point","coordinates":[-121.8709,37.3458]}},{"type":"Feature","properties":{"station_id":"405","name":"Sunol St at San Carlos St","lat":"37.3233","lon":"-121.906"},"geometry":{"type":"Point","coordinates":[-121.906,37.3233]}},{"type":"Feature","properties":{"station_id":"406","name":"Parkmoor Ave at Race St","lat":"37.3168","lon":"-121.9099"},"geometry":{"type":"Point","coordinates":[-121.9099,37.3168]}},{"type":"Feature","properties":{"station_id":"407","name":"Bird Ave at Coe Ave","lat":"37.3151","lon":"-121.8978"},"geometry":{"type":"Point","coordinates":[-121.8978,37.3151]}},{"type":"Feature","properties":{"station_id":"409","name":"2100 Powell St","lat":"37.8395","lon":"-122.2987"},"geometry":{"type":"Point","coordinates":[-122.2987,37.8395]}},{"type":"Feature","properties":{"station_id":"410","name":"Illinois St at Cesar Chavez St","lat":"37.7501","lon":"-122.3865"},"geometry":{"type":"Point","coordinates":[-122.3865,37.7501]}},{"type":"Feature","properties":{"station_id":"411","name":"Octavia Blvd at Page St","lat":"37.7741","lon":"-122.4239"},"geometry":{"type":"Point","coordinates":[-122.4239,37.7741]}},{"type":"Feature","properties":{"station_id":"412","name":"Glen Park BART Station","lat":"37.733","lon":"-122.4342"},"geometry":{"type":"Point","coordinates":[-122.4342,37.733]}},{"type":"Feature","properties":{"station_id":"413","name":"Balboa Park BART Station","lat":"37.7206","lon":"-122.4476"},"geometry":{"type":"Point","coordinates":[-122.4476,37.7206]}},{"type":"Feature","properties":{"station_id":"415","name":"Delmas Ave at Virginia St","lat":"37.3198","lon":"-121.893"},"geometry":{"type":"Point","coordinates":[-121.893,37.3198]}},{"type":"Feature","properties":{"station_id":"416","name":"Auzerais Ave at Los Gatos Creek Trail","lat":"37.3213","lon":"-121.9033"},"geometry":{"type":"Point","coordinates":[-121.9033,37.3213]}},{"type":"Feature","properties":{"station_id":"417","name":"Park Ave at Race St","lat":"37.326","lon":"-121.9124"},"geometry":{"type":"Point","coordinates":[-121.9124,37.326]}},{"type":"Feature","properties":{"station_id":"418","name":"17th St at Santa Clara St","lat":"37.3441","lon":"-121.8745"},"geometry":{"type":"Point","coordinates":[-121.8745,37.3441]}},{"type":"Feature","properties":{"station_id":"419","name":"Fern St at Polk St","lat":"37.7881","lon":"-122.4205"},"geometry":{"type":"Point","coordinates":[-122.4205,37.7881]}},{"type":"Feature","properties":{"station_id":"421","name":"23rd St at Taylor St","lat":"37.3601","lon":"-121.8788"},"geometry":{"type":"Point","coordinates":[-121.8788,37.3601]}},{"type":"Feature","properties":{"station_id":"422","name":"Stockton Ave at Lenzen Ave","lat":"37.3367","lon":"-121.9089"},"geometry":{"type":"Point","coordinates":[-121.9089,37.3367]}},{"type":"Feature","properties":{"station_id":"423","name":"South San Jose State (7th St at Humboldt St)","lat":"37.3202","lon":"-121.87"},"geometry":{"type":"Point","coordinates":[-121.87,37.3202]}},{"type":"Feature","properties":{"station_id":"424","name":"Greenwich St at Webster St","lat":"37.7991","lon":"-122.434"},"geometry":{"type":"Point","coordinates":[-122.434,37.7991]}},{"type":"Feature","properties":{"station_id":"425","name":"Bird Ave at Willow St","lat":"37.3112","lon":"-121.8963"},"geometry":{"type":"Point","coordinates":[-121.8963,37.3112]}},{"type":"Feature","properties":{"station_id":"426","name":"San Carlos St at Meridian Ave","lat":"37.3234","lon":"-121.9134"},"geometry":{"type":"Point","coordinates":[-121.9134,37.3234]}},{"type":"Feature","properties":{"station_id":"427","name":"Auzerais Ave at Lincoln Ave","lat":"37.321","lon":"-121.9083"},"geometry":{"type":"Point","coordinates":[-121.9083,37.321]}},{"type":"Feature","properties":{"station_id":"431","name":"Judson Ave at Gennessee St","lat":"37.7283","lon":"-122.4502"},"geometry":{"type":"Point","coordinates":[-122.4502,37.7283]}},{"type":"Feature","properties":{"station_id":"432","name":"Quesada Ave at 3rd St","lat":"37.7331","lon":"-122.3909"},"geometry":{"type":"Point","coordinates":[-122.3909,37.7331]}},{"type":"Feature","properties":{"station_id":"433","name":"Gennessee St at Monterey Blvd","lat":"37.7318","lon":"-122.4512"},"geometry":{"type":"Point","coordinates":[-122.4512,37.7318]}},{"type":"Feature","properties":{"station_id":"434","name":"Carroll Ave at 3rd St","lat":"37.7254","lon":"-122.394"},"geometry":{"type":"Point","coordinates":[-122.394,37.7254]}},{"type":"Feature","properties":{"station_id":"435","name":"Jennings St at Revere Ave","lat":"37.7294","lon":"-122.3866"},"geometry":{"type":"Point","coordinates":[-122.3866,37.7294]}},{"type":"Feature","properties":{"station_id":"436","name":"McKinnon Ave at 3rd St","lat":"37.7363","lon":"-122.3898"},"geometry":{"type":"Point","coordinates":[-122.3898,37.7363]}},{"type":"Feature","properties":{"station_id":"437","name":"Evans Ave at Mendell St","lat":"37.7401","lon":"-122.3835"},"geometry":{"type":"Point","coordinates":[-122.3835,37.7401]}},{"type":"Feature","properties":{"station_id":"438","name":"Oakdale Ave at Phelps St","lat":"37.7371","lon":"-122.3946"},"geometry":{"type":"Point","coordinates":[-122.3946,37.7371]}},{"type":"Feature","properties":{"station_id":"439","name":"Post St at Divisadero St","lat":"37.7844","lon":"-122.4394"},"geometry":{"type":"Point","coordinates":[-122.4394,37.7844]}},{"type":"Feature","properties":{"station_id":"440","name":"Carl St at Cole St","lat":"37.7659","lon":"-122.4493"},"geometry":{"type":"Point","coordinates":[-122.4493,37.7659]}},{"type":"Feature","properties":{"station_id":"441","name":"Chestnut St at Van Ness Ave","lat":"37.8024","lon":"-122.4244"},"geometry":{"type":"Point","coordinates":[-122.4244,37.8024]}},{"type":"Feature","properties":{"station_id":"442","name":"Newbury Park Dr at King Rd","lat":"37.3658","lon":"-121.8679"},"geometry":{"type":"Point","coordinates":[-121.8679,37.3658]}},{"type":"Feature","properties":{"station_id":"443","name":"3rd St at Keyes St","lat":"37.3211","lon":"-121.8764"},"geometry":{"type":"Point","coordinates":[-121.8764,37.3211]}},{"type":"Feature","properties":{"station_id":"444","name":"Mercado Way at Sierra Rd","lat":"37.3713","lon":"-121.8813"},"geometry":{"type":"Point","coordinates":[-121.8813,37.3713]}},{"type":"Feature","properties":{"station_id":"445","name":"Natoma St at New Montgomery St","lat":"37.7866","lon":"-122.3996"},"geometry":{"type":"Point","coordinates":[-122.3996,37.7866]}},{"type":"Feature","properties":{"station_id":"446","name":"Mint St at Mission St","lat":"37.7824","lon":"-122.4074"},"geometry":{"type":"Point","coordinates":[-122.4074,37.7824]}},{"type":"Feature","properties":{"station_id":"450","name":"Funston Ave at Irving St","lat":"37.7641","lon":"-122.4706"},"geometry":{"type":"Point","coordinates":[-122.4706,37.7641]}},{"type":"Feature","properties":{"station_id":"451","name":"10th Ave at Irving St","lat":"37.7641","lon":"-122.4674"},"geometry":{"type":"Point","coordinates":[-122.4674,37.7641]}},{"type":"Feature","properties":{"station_id":"453","name":"Brannan St at 4th St","lat":"37.778","lon":"-122.3969"},"geometry":{"type":"Point","coordinates":[-122.3969,37.778]}},{"type":"Feature","properties":{"station_id":"454","name":"7th Ave at Cabrillo St","lat":"37.7751","lon":"-122.465"},"geometry":{"type":"Point","coordinates":[-122.465,37.7751]}},{"type":"Feature","properties":{"station_id":"455","name":"McAllister St at Arguello Blvd","lat":"37.7753","lon":"-122.458"},"geometry":{"type":"Point","coordinates":[-122.458,37.7753]}},{"type":"Feature","properties":{"station_id":"456","name":"Arguello Blvd at Geary Blvd","lat":"37.7815","lon":"-122.4587"},"geometry":{"type":"Point","coordinates":[-122.4587,37.7815]}},{"type":"Feature","properties":{"station_id":"457","name":"7th Ave at Irving St","lat":"37.7635","lon":"-122.4641"},"geometry":{"type":"Point","coordinates":[-122.4641,37.7635]}},{"type":"Feature","properties":{"station_id":"458","name":"Frederick St at Arguello Blvd","lat":"37.7658","lon":"-122.4576"},"geometry":{"type":"Point","coordinates":[-122.4576,37.7658]}},{"type":"Feature","properties":{"station_id":"459","name":"Utah St at 24th St","lat":"37.7532","lon":"-122.4055"},"geometry":{"type":"Point","coordinates":[-122.4055,37.7532]}},{"type":"Feature","properties":{"station_id":"460","name":"Terry Francois Blvd at Warriors Way","lat":"37.7694","lon":"-122.3863"},"geometry":{"type":"Point","coordinates":[-122.3863,37.7694]}},{"type":"Feature","properties":{"station_id":"461","name":"Terry Francois Blvd at Mission Bay Blvd N","lat":"37.7717","lon":"-122.3867"},"geometry":{"type":"Point","coordinates":[-122.3867,37.7717]}},{"type":"Feature","properties":{"station_id":"462","name":"Cruise Terminal at Pier 27","lat":"37.8046","lon":"-122.4019"},"geometry":{"type":"Point","coordinates":[-122.4019,37.8046]}},{"type":"Feature","properties":{"station_id":"463","name":"Heron's Head Park","lat":"37.7405","lon":"-122.3764"},"geometry":{"type":"Point","coordinates":[-122.3764,37.7405]}},{"type":"Feature","properties":{"station_id":"465","name":"San Francisco Caltrain Station (King St at 4th St)","lat":"37.7763","lon":"-122.3944"},"geometry":{"type":"Point","coordinates":[-122.3944,37.7763]}},{"type":"Feature","properties":{"station_id":"466","name":"5th Ave at Anza St","lat":"37.7795","lon":"-122.4632"},"geometry":{"type":"Point","coordinates":[-122.4632,37.7795]}},{"type":"Feature","properties":{"station_id":"467","name":"Brannan St at Colin P Kelly Jr St","lat":"37.7821","lon":"-122.3917"},"geometry":{"type":"Point","coordinates":[-122.3917,37.7821]}},{"type":"Feature","properties":{"station_id":"468","name":"Grove St at Gough St","lat":"37.7779","lon":"-122.4228"},"geometry":{"type":"Point","coordinates":[-122.4228,37.7779]}},{"type":"Feature","properties":{"station_id":"469","name":"Ellis St at Pierce St","lat":"37.782","lon":"-122.4357"},"geometry":{"type":"Point","coordinates":[-122.4357,37.782]}},{"type":"Feature","properties":{"station_id":"470","name":"N 14th St at E Santa Clara St","lat":"37.3427","lon":"-121.8773"},"geometry":{"type":"Point","coordinates":[-121.8773,37.3427]}},{"type":"Feature","properties":{"station_id":"471","name":"Turk Blvd at Stanyan St","lat":"37.7777","lon":"-122.4547"},"geometry":{"type":"Point","coordinates":[-122.4547,37.7777]}},{"type":"Feature","properties":{"station_id":"472","name":"Columbia Ave at Bird Ave","lat":"37.3243","lon":"-121.8996"},"geometry":{"type":"Point","coordinates":[-121.8996,37.3243]}},{"type":"Feature","properties":{"station_id":"473","name":"Willow St at Blewett Ave","lat":"37.309","lon":"-121.9"},"geometry":{"type":"Point","coordinates":[-121.9,37.309]}},{"type":"Feature","properties":{"station_id":"474","name":"14th Ave at Geary Blvd","lat":"37.7804","lon":"-122.4728"},"geometry":{"type":"Point","coordinates":[-122.4728,37.7804]}},{"type":"Feature","properties":{"station_id":"475","name":"22nd St at William St","lat":"37.34","lon":"-121.8637"},"geometry":{"type":"Point","coordinates":[-121.8637,37.34]}},{"type":"Feature","properties":{"station_id":"476","name":"19th St at William St","lat":"37.3387","lon":"-121.8666"},"geometry":{"type":"Point","coordinates":[-121.8666,37.3387]}},{"type":"Feature","properties":{"station_id":"477","name":"17th Ave at Geary Blvd","lat":"37.7807","lon":"-122.4761"},"geometry":{"type":"Point","coordinates":[-122.4761,37.7807]}},{"type":"Feature","properties":{"station_id":"478","name":"Greenwich St at Franklin St","lat":"37.8003","lon":"-122.4258"},"geometry":{"type":"Point","coordinates":[-122.4258,37.8003]}},{"type":"Feature","properties":{"station_id":"480","name":"Steiner St at California St","lat":"37.7884","lon":"-122.4353"},"geometry":{"type":"Point","coordinates":[-122.4353,37.7884]}},{"type":"Feature","properties":{"station_id":"481","name":"O'Farrell St at Masonic Ave","lat":"37.7812","lon":"-122.4472"},"geometry":{"type":"Point","coordinates":[-122.4472,37.7812]}},{"type":"Feature","properties":{"station_id":"482","name":"Brannan St at 7th St","lat":"37.7728","lon":"-122.4035"},"geometry":{"type":"Point","coordinates":[-122.4035,37.7728]}},{"type":"Feature","properties":{"station_id":"483","name":"7th St at King St","lat":"37.7713","lon":"-122.401"},"geometry":{"type":"Point","coordinates":[-122.401,37.7713]}},{"type":"Feature","properties":{"station_id":"485","name":"Funston Ave at Fulton St","lat":"37.7735","lon":"-122.4713"},"geometry":{"type":"Point","coordinates":[-122.4713,37.7735]}},{"type":"Feature","properties":{"station_id":"486","name":"Arguello Blvd at Edward St","lat":"37.7786","lon":"-122.4586"},"geometry":{"type":"Point","coordinates":[-122.4586,37.7786]}},{"type":"Feature","properties":{"station_id":"487","name":"Powell St at Columbus Ave","lat":"37.8005","lon":"-122.4109"},"geometry":{"type":"Point","coordinates":[-122.4109,37.8005]}},{"type":"Feature","properties":{"station_id":"488","name":"Egbert Ave at Jennings St","lat":"37.7226","lon":"-122.3925"},"geometry":{"type":"Point","coordinates":[-122.3925,37.7226]}},{"type":"Feature","properties":{"station_id":"489","name":"Funston Ave at Clement St","lat":"37.7824","lon":"-122.4719"},"geometry":{"type":"Point","coordinates":[-122.4719,37.7824]}},{"type":"Feature","properties":{"station_id":"490","name":"9th Ave at Geary Blvd","lat":"37.7818","lon":"-122.4676"},"geometry":{"type":"Point","coordinates":[-122.4676,37.7818]}},{"type":"Feature","properties":{"station_id":"491","name":"Devine St at San Pedro St","lat":"37.3387","lon":"-121.8956"},"geometry":{"type":"Point","coordinates":[-121.8956,37.3387]}},{"type":"Feature","properties":{"station_id":"492","name":"Webster St at Clay St","lat":"37.7906","lon":"-122.4325"},"geometry":{"type":"Point","coordinates":[-122.4325,37.7906]}},{"type":"Feature","properties":{"station_id":"493","name":"Folsom St at 7th St","lat":"37.7765","lon":"-122.4081"},"geometry":{"type":"Point","coordinates":[-122.4081,37.7765]}},{"type":"Feature","properties":{"station_id":"494","name":"Park Ave at Laurel Grove Ln","lat":"37.3263","lon":"-121.9051"},"geometry":{"type":"Point","coordinates":[-121.9051,37.3263]}},{"type":"Feature","properties":{"station_id":"495","name":"St James St at 9th St","lat":"37.3431","lon":"-121.8845"},"geometry":{"type":"Point","coordinates":[-121.8845,37.3431]}},{"type":"Feature","properties":{"station_id":"496","name":"Green St at Van Ness Ave","lat":"37.7977","lon":"-122.4234"},"geometry":{"type":"Point","coordinates":[-122.4234,37.7977]}},{"type":"Feature","properties":{"station_id":"498","name":"Frida Kahlo Way at Cloud Cir","lat":"37.726","lon":"-122.4525"},"geometry":{"type":"Point","coordinates":[-122.4525,37.726]}},{"type":"Feature","properties":{"station_id":"499","name":"Otis St at Brady St","lat":"37.772","lon":"-122.4198"},"geometry":{"type":"Point","coordinates":[-122.4198,37.772]}},{"type":"Feature","properties":{"station_id":"500","name":"Battery St at Filbert St","lat":"37.802","lon":"-122.4018"},"geometry":{"type":"Point","coordinates":[-122.4018,37.802]}},{"type":"Feature","properties":{"station_id":"506","name":"7th Ave at Clement St","lat":"37.7824","lon":"-122.4654"},"geometry":{"type":"Point","coordinates":[-122.4654,37.7824]}},{"type":"Feature","properties":{"station_id":"508","name":"St. Joseph's Ave at Geary Blvd","lat":"37.7825","lon":"-122.4424"},"geometry":{"type":"Point","coordinates":[-122.4424,37.7825]}},{"type":"Feature","properties":{"station_id":"509","name":"Evans Ave at Newhall St","lat":"37.7423","lon":"-122.3869"},"geometry":{"type":"Point","coordinates":[-122.3869,37.7423]}},{"type":"Feature","properties":{"station_id":"510","name":"Post St at Webster St","lat":"37.7854","lon":"-122.4316"},"geometry":{"type":"Point","coordinates":[-122.4316,37.7854]}},{"type":"Feature","properties":{"station_id":"511","name":"Anza St at Collins St","lat":"37.7806","lon":"-122.4505"},"geometry":{"type":"Point","coordinates":[-122.4505,37.7806]}},{"type":"Feature","properties":{"station_id":"512","name":"Divisadero St at Clay St","lat":"37.7896","lon":"-122.4407"},"geometry":{"type":"Point","coordinates":[-122.4407,37.7896]}},{"type":"Feature","properties":{"station_id":"513","name":"Alameda St at Henry Adams St","lat":"37.7686","lon":"-122.4042"},"geometry":{"type":"Point","coordinates":[-122.4042,37.7686]}},{"type":"Feature","properties":{"station_id":"514","name":"Laurel St at California St","lat":"37.7868","lon":"-122.45"},"geometry":{"type":"Point","coordinates":[-122.45,37.7868]}},{"type":"Feature","properties":{"station_id":"515","name":"18th Ave at California St","lat":"37.785","lon":"-122.4775"},"geometry":{"type":"Point","coordinates":[-122.4775,37.785]}},{"type":"Feature","properties":{"station_id":"516","name":"Clement St at 32nd Ave","lat":"37.7817","lon":"-122.4928"},"geometry":{"type":"Point","coordinates":[-122.4928,37.7817]}},{"type":"Feature","properties":{"station_id":"517","name":"Spruce St at California St","lat":"37.7867","lon":"-122.4534"},"geometry":{"type":"Point","coordinates":[-122.4534,37.7867]}},{"type":"Feature","properties":{"station_id":"518","name":"22nd St at Potrero Ave","lat":"37.7568","lon":"-122.406"},"geometry":{"type":"Point","coordinates":[-122.406,37.7568]}},{"type":"Feature","properties":{"station_id":"520","name":"23rd Ave at Clement St","lat":"37.782","lon":"-122.4828"},"geometry":{"type":"Point","coordinates":[-122.4828,37.782]}},{"type":"Feature","properties":{"station_id":"521","name":"48th Ave at Cabrillo St","lat":"37.7729","lon":"-122.5091"},"geometry":{"type":"Point","coordinates":[-122.5091,37.7729]}}]}